WellId,WellName,Lease,API,SurfaceLatitude,SurfaceLongitude,BottomHoleLatitude,BottomHoleLongitude,Country,County,State,CurrentOperator,OriginalOperator,WellStatus,WellType,Field,ProducingFormation,WellboreProfile,Grid1,Grid2,Grid3,Grid4,Grid5,TotalDepth,TrueVerticalDepth,LateralLength,DFElevation,GLElevation,KBElevation,DateModified,FirstProdDate,LastProdDate,LogDate,PermitDate,PlugDate,SpudDate,TestDate,CumulativeGasProduction,CumulativeOilProduction,CumulativeWaterProduction,LastMonthOil,LastMonthGas,LastMonthWater,LastMonthBOE,HasCore,HasFile,HasLog,HasPerf,HasProduction,HasSample,HasTop
6713e96e-c1be-45b0-ae3c-89c4d3e15524,MOUNTAIN GAP 10-10H,MOUNTAIN GAP,33025032390000,47.4893035888672,-102.906066894531,47.4893035888672,-102.906066894531,,DUNN,North Dakota,"CONTINENTAL RESOURCES, INC.","CONTINENTAL RESOURCES, INC.",,,RATTLESNAKE POINT,Bakken,,,146N,96W,3,,,11464,,0,2804,0,10/7/2017 8:13:44 AM,3/1/2018 12:00:00 AM,3/1/2018 12:00:00 AM,,11/6/2016 12:00:00 AM,,4/7/2017 12:00:00 AM,,754,76,131,76,754,131,201.6667,False,True,False,False,True,False,False
5eae641d-4f6a-41ba-b5c7-78af15b3029e,LANSING 8-25H1,LANSING,33053070620000,47.9618644714355,-103.293395996094,47.9354553222656,-103.291694641113,,MC KENZIE,North Dakota,"CONTINENTAL RESOURCES, INC.","CONTINENTAL RESOURCES, INC.",,,BANKS,Bakken,,,152N,99W,25,,20716,11231.150390625,9484.849609375,0,2154,2185,11/18/2017 8:18:52 AM,1/1/2018 12:00:00 AM,1/1/2018 12:00:00 AM,,7/2/2015 12:00:00 AM,,10/14/2015 12:00:00 AM,,2660,1584,3424,1584,2660,3424,2027.333,True,True,True,False,True,False,False
1ef1ccfc-5c9b-43e9-b2fc-cd1bddc2549a,LANSING 6-25H,LANSING,33053070610000,47.9618759155273,-103.293678283691,47.9354591369629,-103.292839050293,,MC KENZIE,North Dakota,"CONTINENTAL RESOURCES, INC.","CONTINENTAL RESOURCES, INC.",,,BANKS,Bakken,,,152N,99W,25,,20598,11135,9463,0,2154,2185,11/18/2017 8:20:07 AM,1/1/2018 12:00:00 AM,1/1/2018 12:00:00 AM,,7/2/2015 12:00:00 AM,,10/11/2015 12:00:00 AM,,5006,2373,5788,2373,5006,5788,3207.333,True,True,False,False,True,False,False
2a5e5a33-dd4d-49f0-b41e-db043b07f4d2,MONROE 13-2H1,MONROE,33053078230000,48.0134887695313,-103.307746887207,48.0526847839355,-103.306243896484,,MC KENZIE,North Dakota,"CONTINENTAL RESOURCES, INC.","CONTINENTAL RESOURCES, INC.",,,BANKS,Bakken,,,152N,99W,2,,25167,10985,14182,0,1944,0,11/18/2017 8:21:28 AM,1/1/2018 12:00:00 AM,1/1/2018 12:00:00 AM,,10/25/2016 12:00:00 AM,,11/13/2016 12:00:00 AM,,1758,822,3634,822,1758,3634,1115,True,True,True,False,True,False,False
da37f4c0-a630-422a-bcae-a3921b2154af,MONROE 12-2H1,MONROE,33053078240000,48.0135116577148,-103.307922363281,48.0526809692383,-103.30884552002,,MC KENZIE,North Dakota,"CONTINENTAL RESOURCES, INC.","CONTINENTAL RESOURCES, INC.",,,BANKS,Bakken,,,152N,99W,2,,25206,10964,14242,0,1944,0,11/18/2017 8:16:29 AM,1/1/2018 12:00:00 AM,1/1/2018 12:00:00 AM,,10/25/2016 12:00:00 AM,,11/15/2016 12:00:00 AM,,5315,2295,7406,2295,5315,7406,3180.833,True,True,True,False,True,False,False
b0a091d1-bdce-4630-b7ee-65022670e141,TILDEN UNIT,,4231136652,28.4678153991699,-98.5415191650391,28.4412174224854,-98.5411911010742,,MC MULLEN,Texas,STATOIL TEXAS ONSHORE PROP LLC,STATOIL TEXAS ONSHORE PROP LLC,,,EAGLEVILLE (EAGLE FORD-1),EAGLE FORD-1,VERTICAL,,,,,,11473,11473,518,0,0,0,4/23/2018 4:59:26 AM,1/1/2018 12:00:00 AM,2/1/2018 12:00:00 AM,,7/5/2017 12:00:00 AM,,2/13/2017 12:00:00 AM,,47988,14513,0,7130,23387,0,11027.83,False,False,False,False,True,False,False
b5e87e73-756a-45ea-99fc-7268ad40aff5,STATE TRACT 13 4,04-164854 : STATE TRACT 13,4200730825,28.1592864990234,-96.8566513061523,28.1592864990234,-96.8566513061523,,ARANSAS,Texas,"TR OFFSHORE, LLC",MITCHELL ENERGY CORPORATION,ACTIVE - PRODUCING,,,FRIO MF-1,VERTICAL,,,,,,11181,,,0,0,40,3/4/2017 5:59:59 PM,1/1/2018 12:00:00 AM,2/1/2018 12:00:00 AM,,3/24/2011 12:00:00 AM,,7/13/1996 12:00:00 AM,,163,49,0,21,97,0,37.16667,False,False,False,True,True,False,True
6719f2d7-116c-4c5f-a709-a30e71ba8600,PARKEY -C- 4,09-18178 : PARKEY -C-,4200932368,33.7929992675781,-98.7542572021484,33.7929992675781,-98.7542572021484,,ARCHER,Texas,"ENR OPERATING, LLC","ENR OPERATING, LLC",ACTIVE - PRODUCING,,HOLLIDAY (4350),,VERTICAL,,,,,,4371,4371,,0,0,0,2/20/2018 6:31:08 PM,1/1/2018 12:00:00 AM,2/1/2018 12:00:00 AM,,11/28/2017 12:00:00 AM,,11/28/2017 12:00:00 AM,,0,46,2508,31,0,155,31,False,False,False,True,True,False,False
d34c8057-1c8c-41f2-9a64-052a8de59226,PANGEA WEST 'D' AW 6648HA,7C-19371 : PANGEA WEST 'D' AW,4210542317,31.0175495147705,-101.494598388672,30.9950561523438,-101.495445251465,,CROCKETT,Texas,APPROACH OPERATING LLC,APPROACH OPERATING LLC,ACTIVE - PRODUCING,,,CONSOLIDATED,HORIZONTAL,,,,,,6661,6661,7631,0,2603,0,4/23/2018 4:59:26 AM,2/1/2018 12:00:00 AM,2/1/2018 12:00:00 AM,,1/11/2016 12:00:00 AM,,1/23/2016 12:00:00 AM,,820,1668,0,1668,820,0,1804.667,False,False,False,False,True,False,False
5ae48e7c-96bc-47bf-8fd3-e1161a4bb749,SOUTH SPUR UNIT B 1H,01-278027 : SOUTH SPUR UNIT B,4212736676,28.3648700714111,-99.9228210449219,28.3443927764893,-99.9243774414063,,DIMMIT,Texas,"SN EF MAVERICK, LLC",ANADARKO E&P ONSHORE LLC,ACTIVE - PRODUCING,,,EAGLEFORD,HORIZONTAL,,,,,,6896,6896,7192,0,747,0,3/22/2017 5:42:35 AM,1/1/2018 12:00:00 AM,2/1/2018 12:00:00 AM,,9/26/2014 12:00:00 AM,,11/19/2014 12:00:00 AM,,55087,21271,0,21271,55073,0,30449.83,False,False,False,False,True,False,True
58139a74-e497-4c6a-8aeb-7c2b0650d39b,ELM CREEK RANCH 7 5,10-249949 : ELM CREEK RANCH 7,4221134464,35.755802154541,-100.117599487305,35.755802154541,-100.117599487305,,HEMPHILL,Texas,"ENERVEST OPERATING, L.L.C.","LAREDO PETROLEUM, INC.",ACTIVE - PRODUCING,,,DOUGLAS,VERTICAL,,,,,,8450,,,0,2487,0,1/25/2015 6:52:20 AM,2/1/2018 12:00:00 AM,3/1/2018 12:00:00 AM,,10/7/2008 12:00:00 AM,,11/16/2008 12:00:00 AM,,179,411,0,109,179,0,138.8333,False,False,True,True,True,False,False
5af6c6eb-7220-440b-be33-bd0df599fe16,BIGGS SL 4H,06-275136 : BIGGS SL,4236538085,32.0796737670898,-94.158576965332,32.0641860961914,-94.1550369262695,,PANOLA,Texas,ROCKCLIFF ENERGY OPERATING LLC,"SAMSON LONE STAR, LLC",ACTIVE - PRODUCING,,,CV,HORIZONTAL,,,,,,9024,9024,5544,0,188,0,11/14/2017 9:32:09 PM,1/1/2018 12:00:00 AM,3/1/2018 12:00:00 AM,,10/18/2013 12:00:00 AM,,11/5/2013 12:00:00 AM,,76541,269,0,82,26846,0,4556.333,False,False,False,True,True,False,True
24c0ce7c-b638-45e0-bd19-da1ad9ddfed7,CRNKO-BIGGS SL 7H,06-268104 : CRNKO-BIGGS SL,4236537957,32.0732002258301,-94.1764068603516,32.0607643127441,-94.1703262329102,,PANOLA,Texas,ROCKCLIFF ENERGY OPERATING LLC,"SAMSON LONE STAR, LLC",ACTIVE - PRODUCING,,,CV,HORIZONTAL,,,,,,8958,8958,4515,0,187,0,10/20/2017 6:43:01 AM,3/1/2018 12:00:00 AM,3/1/2018 12:00:00 AM,,9/24/2012 12:00:00 AM,,11/24/2012 12:00:00 AM,,14080,144,0,144,14080,0,2490.667,False,False,False,True,True,False,True
677c359b-16c9-40ef-85df-3de74c546ae1,WERNER-CARAWAY SL 6H,06-274996 : WERNER-CARAWAY SL,4236538043,32.0446510314941,-94.1571807861328,32.060619354248,-94.1627349853516,,PANOLA,Texas,ROCKCLIFF ENERGY OPERATING LLC,"SAMSON LONE STAR, LLC",ACTIVE - PRODUCING,,,CV,HORIZONTAL,TC RR CO,,16,A-966,"NEEDHAM, J F",9018,9018,6252,0,180,0,10/20/2017 8:43:54 AM,3/1/2018 12:00:00 AM,3/1/2018 12:00:00 AM,,5/3/2014 12:00:00 AM,,6/24/2013 12:00:00 AM,,29178,113,0,113,29178,0,4976,False,True,False,True,True,False,True
340ee2a4-969a-4ad5-a7a9-2f17c0c22183,O'CONNOR -H- H34,02-257660 : O'CONNOR -H-,4239132956,28.5334453582764,-97.0594711303711,28.5334453582764,-97.0594711303711,,REFUGIO,Texas,"T-C OIL COMPANY, LLC",T - C OIL COMPANY,ACTIVE - PRODUCING,,,2800,HORIZONTAL,"KEATING, J",,,A-40,,2851,,,0,37,0,8/24/2016 4:16:58 AM,3/1/2018 12:00:00 AM,3/1/2018 12:00:00 AM,,7/7/2010 12:00:00 AM,,5/23/2010 12:00:00 AM,,596,0,0,0,596,0,99.33334,False,False,False,True,True,False,True
305af65a-aad4-4c46-9b70-448970e11fa5,State 3095 131,State 3095,04259216900000,33.7186431884766,-118.114135742188,33.7186431884766,-118.114135742188,,ORANGE OFFSHORE,California,"DCOR, LLC",,Active,,Belmont Offshore,,VERTICAL,,5S,12W,22,,0,,,0,0,0,5/3/2018 7:17:53 PM,1/1/2018 12:00:00 AM,1/1/2018 12:00:00 AM,,,,,,2310,1609,4050,1609,2310,4050,1994,False,True,False,False,True,False,False
ea7292f0-7278-4b29-af28-36aeeb2b225d,Ferrini 1292-11,Ferrini,04053215140000,35.9443283081055,-120.857284545898,35.9443283081055,-120.857284545898,,MONTEREY,California,Aera Energy LLC,,Active,,San Ardo,Lombardi,DIRECTIONAL,,23S,10E,11,,0,,,0,796,0,5/3/2018 4:56:31 PM,1/1/2018 12:00:00 AM,1/1/2018 12:00:00 AM,,9/20/2017 12:00:00 AM,,,,155,1070,10719,1070,155,10719,1095.833,False,True,False,False,True,False,False
5289f80b-c8dd-4dc6-9be5-17e8350e982e,Rock 14 SPM,ROCK,04079208030000,35.1818351745605,-120.619934082031,35.1818351745605,-120.619934082031,,SAN LUIS OBISPO,California,FREEPORT-MCMORAN OIL & GAS LLC,,Active,,Arroyo Grande,Dollie,VERTICAL,,31S,13E,31,,0,,,0,0,0,5/3/2018 7:11:14 PM,2/1/2018 12:00:00 AM,2/1/2018 12:00:00 AM,,,,,,1598,1176,7466,1176,1598,7466,1442.333,False,True,False,False,True,False,False
5eb95883-9348-4a63-aac9-da08655e25a7,Newlove 254,Newlove,04083227340000,34.8273124694824,-120.4052734375,34.8273124694824,-120.4052734375,,SANTA BARBARA,California,Pacific Coast Energy Company LP,,Active,,Orcutt,Diatomite,DIRECTIONAL,,9N,34W,25,,0,,,0,0,1149,5/3/2018 7:15:35 PM,1/1/2018 12:00:00 AM,1/1/2018 12:00:00 AM,,,,4/28/2012 12:00:00 AM,,8,6,101,6,8,101,7.333333,False,True,False,False,True,False,False
405107c1-8b67-460c-8f3a-7a11402df56c,Cantin 38,Cantin,04083216710000,34.8655891418457,-120.30842590332,34.8655891418457,-120.30842590332,,SANTA BARBARA,California,"ERG Operating Company, LLC",,Active,,Cat Canyon,,VERTICAL,,9N,33W,12,,0,,,0,0,0,5/3/2018 5:08:25 PM,1/1/2018 12:00:00 AM,2/1/2018 12:00:00 AM,,,,,,129,394,147,197,66,66,208,False,True,False,False,True,False,False
bc0d4101-e330-437c-b8b5-1e7ce4a89aac,Newlove 220,Newlove,04083226100000,34.826244354248,-120.404296875,34.826244354248,-120.404296875,,SANTA BARBARA,California,Pacific Coast Energy Company LP,,Active,,Orcutt,Diatomite,DIRECTIONAL,,9N,34W,25,,0,,,0,1106,0,5/3/2018 7:08:56 PM,1/1/2018 12:00:00 AM,2/1/2018 12:00:00 AM,,1/22/2018 12:00:00 AM,,,,140,263,2599,228,115,1956,247.1667,False,True,False,False,True,False,False
0059e937-71f8-4268-b75c-ed61e7376266,Crestmont 408,Crestmont,04030409710000,35.4235496520996,-118.979499816895,35.4235496520996,-118.979499816895,,KERN,California,CHEVRON U.S.A. INC.,,Active,,Kern River,Kern River,VERTICAL,,29S,28E,9,,0,,,0,0,475,5/3/2018 6:21:35 PM,1/1/2018 12:00:00 AM,2/1/2018 12:00:00 AM,,,,8/20/2010 12:00:00 AM,,0,222,1383,105,0,649,105,False,True,False,False,True,False,False
f83b2336-8ae1-4846-a486-efd1ffe32a2b,SEBU T 3295A-1,SEBU T,04030325010000,35.4345321655273,-119.673736572266,35.4345321655273,-119.673736572266,,KERN,California,Aera Energy LLC,,Active,,"Belridge, South",Tulare,VERTICAL,,29S,21E,1,,0,,,0,0,519,5/3/2018 4:16:27 PM,1/1/2018 12:00:00 AM,1/1/2018 12:00:00 AM,,,,,,146,590,17164,590,146,17164,614.3333,False,True,False,False,True,False,False
6d0a5a04-7ee8-44d2-a3cd-eff66ea7916f,Moco 34 MBC-191K,Moco 34,04030237280000,35.0840606689453,-119.42781829834,35.0840606689453,-119.42781829834,,KERN,California,Aera Energy LLC,,Active,,Midway-Sunset,,VERTICAL,,12N,24W,34,,0,,,0,0,1027,5/3/2018 6:17:04 PM,1/1/2018 12:00:00 AM,1/1/2018 12:00:00 AM,,,,,,109,387,468,387,109,468,405.1667,False,True,False,False,True,False,False
233a559f-fa44-4632-9cf9-f0041214a3af,Maxwell B-101,Maxwell,04030119200000,35.2084617614746,-119.592140197754,35.2084617614746,-119.592140197754,,KERN,California,Aera Energy LLC,,Active,,Midway-Sunset,,DIRECTIONAL,,31S,22E,27,,0,,,0,0,1521,5/3/2018 4:06:19 PM,1/1/2018 12:00:00 AM,1/1/2018 12:00:00 AM,,,,,,1,1,293,1,1,293,1.166667,False,True,False,False,True,False,False
db6df2e4-72b4-4ced-89cf-f35102b2fe41,K590,,04030415540000,35.1378364562988,-119.518028259277,35.1378364562988,-119.518028259277,,KERN,California,CHEVRON U.S.A. INC.,,Active,,Midway-Sunset,,DIRECTIONAL,,32S,23E,17,,0,,,0,0,1640,5/3/2018 6:21:59 PM,1/1/2018 12:00:00 AM,2/1/2018 12:00:00 AM,,,,9/11/2010 12:00:00 AM,,0,405,6753,191,0,3180,191,False,True,False,False,True,False,False
64c04be0-1415-49a1-bee5-f67d17aa9933,Del Monte 916,Del Monte,04030092830000,35.3061943054199,-119.639701843262,35.3061943054199,-119.639701843262,,KERN,California,CHEVRON U.S.A. INC.,,Active,,McKittrick,Upper,VERTICAL,,30S,22E,20,,0,,,0,0,1137,5/3/2018 6:05:24 PM,1/1/2018 12:00:00 AM,2/1/2018 12:00:00 AM,,,,,,0,32,233,15,0,108,15,False,True,False,False,True,False,False
126c1a30-4772-4c6e-b837-f748f064738a,Needham-Bloemer American B#1,Needham-Bloemer,04030621490000,35.4159698486328,-118.912658691406,35.4159698486328,-118.912658691406,,KERN,California,"Citadel Exploration, Inc.",,Active,,Kern Bluff,MIOCENE,VERTICAL,,29S,29E,7,,0,,,0,0,0,6/4/2018 12:24:32 AM,1/1/2018 12:00:00 AM,1/1/2018 12:00:00 AM,,,,,,0,109,1086,109,0,1086,109,False,True,False,False,True,False,False
0a8d06f0-6871-4963-a26a-f78537439423,Monte Cristo No. 1 1-2A,Monte Cristo No. 1,04029762070000,35.4403381347656,-119.002914428711,35.4403381347656,-119.002914428711,,KERN,California,CHEVRON U.S.A. INC.,,Active,,Kern River,Kern River,DIRECTIONAL,,29S,28E,5,,0,,,0,0,0,5/3/2018 3:56:48 PM,1/1/2018 12:00:00 AM,2/1/2018 12:00:00 AM,,,,,,0,92,923,43,0,433,43,False,True,False,False,True,False,False
927e9b1b-f84f-459b-b338-f8446734783e,Lost Hills Govt. 4244,Lost Hills Govt.,04030386480000,35.6678428649902,-119.756729125977,35.6678428649902,-119.756729125977,,KERN,California,Aera Energy LLC,,Active,,Lost Hills,Tulare,VERTICAL,,26S,21E,18,,0,,,0,0,355,5/3/2018 6:26:55 PM,1/1/2018 12:00:00 AM,1/1/2018 12:00:00 AM,,,,8/4/2009 12:00:00 AM,,0,1202,2629,1202,0,2629,1202,False,True,False,False,True,False,False
75c75c0a-8a01-4ef0-9c3a-f916547468ac,Formax East A-13,Formax East,04029852380000,35.0959854125977,-119.446716308594,35.0959854125977,-119.446716308594,,KERN,California,"LINN OPERATING, INC.",,Active,,Midway-Sunset,,VERTICAL,,32S,23E,36,,0,,,0,0,0,5/3/2018 6:00:10 PM,1/1/2018 12:00:00 AM,1/1/2018 12:00:00 AM,,,,,,0,71,1557,71,0,1557,71,False,True,False,False,True,False,False
786b83e6-918e-45cc-8346-fc4daabda215,8-34,,04029854870000,35.3655471801758,-119.683128356934,35.3655471801758,-119.683128356934,,KERN,California,CHEVRON U.S.A. INC.,,Active,,Cymric,Tulare,VERTICAL,,29S,21E,35,,0,,,0,719,0,5/3/2018 6:06:48 PM,1/1/2018 12:00:00 AM,2/1/2018 12:00:00 AM,,,,,,0,250,324,132,0,147,132,False,True,False,False,True,False,False
a7af345c-415e-45a7-a888-fdc9945d20c4,Kern A 192,KERN A,04029754150000,35.4489784240723,-118.975730895996,35.4489784240723,-118.975730895996,,KERN,California,CHEVRON U.S.A. INC.,,Active,,Kern River,Kern River,VERTICAL,,28S,28E,32,,0,,,0,0,0,5/3/2018 3:56:29 PM,1/1/2018 12:00:00 AM,2/1/2018 12:00:00 AM,,,,,,0,63,306,28,0,141,28,False,True,False,False,True,False,False
0e3d3d1c-2eba-4568-a1f5-188a483aad06,140,,04029762050000,35.1779708862305,-119.550575256348,35.1779708862305,-119.550575256348,,KERN,California,CHEVRON U.S.A. INC.,,Active,,Midway-Sunset,,VERTICAL,,32S,23E,6,,0,,,0,0,0,5/3/2018 3:56:48 PM,1/1/2018 12:00:00 AM,2/1/2018 12:00:00 AM,,,,,,0,159,1769,75,0,838,75,False,True,False,False,True,False,False
b81ee8ed-e099-440a-8708-19103d5956d9,Moco 35 MBC-289B,Moco 35,04029895280000,35.0776100158691,-119.412124633789,35.0776100158691,-119.412124633789,,KERN,California,Aera Energy LLC,,Active,,Midway-Sunset,,VERTICAL,,12N,24W,35,,0,,,0,0,878,5/3/2018 4:01:48 PM,1/1/2018 12:00:00 AM,1/1/2018 12:00:00 AM,,,,,,22,78,1105,78,22,1105,81.66666,False,True,False,False,True,False,False
4ddb09d4-be34-484d-83b5-19272adc5b1c,McKittrick Fee H-28T,McKittrick Fee,04030164070000,35.3333930969238,-119.635444641113,35.3333930969238,-119.635444641113,,KERN,California,CHEVRON U.S.A. INC.,,Active,,Cymric,Tulare,VERTICAL,,30S,22E,8,,0,,,0,0,882,5/3/2018 6:14:26 PM,1/1/2018 12:00:00 AM,2/1/2018 12:00:00 AM,,,,,,0,907,6110,589,0,1366,589,False,True,False,False,True,False,False
21d870ba-4e59-457e-8d48-19cfb697e651,USL G-5423,USL,04030131540000,35.2053070068359,-119.600769042969,35.2053070068359,-119.600769042969,,KERN,California,CHEVRON U.S.A. INC.,,Active,,Midway-Sunset,,DIRECTIONAL,,31S,22E,27,,0,,,0,0,1593,5/3/2018 4:06:43 PM,1/1/2018 12:00:00 AM,2/1/2018 12:00:00 AM,,,,,,2,48,1298,23,0,616,23,False,True,False,False,True,False,False
2bae98bc-6857-4a73-b3e2-1afd33c4fa80,Dick 194,DICK,04029787750000,35.4452705383301,-118.954040527344,35.4452705383301,-118.954040527344,,KERN,California,CHEVRON U.S.A. INC.,,Active,,Kern River,Kern River,VERTICAL,,28S,28E,34,,0,,,0,0,0,5/3/2018 6:04:20 PM,1/1/2018 12:00:00 AM,2/1/2018 12:00:00 AM,,,,,,0,529,2314,216,0,1085,216,False,True,False,False,True,False,False
0862f04d-84ec-4737-a3e1-39d2c157abc1,Moco 34 MBC-195B,Moco 34,04030150940000,35.0846557617188,-119.424018859863,35.0846557617188,-119.424018859863,,KERN,California,Aera Energy LLC,,Active,,Midway-Sunset,,VERTICAL,,12N,24W,34,,0,,,0,0,1006,5/3/2018 6:14:00 PM,1/1/2018 12:00:00 AM,1/1/2018 12:00:00 AM,,,,,,12,41,48,41,12,48,43,False,True,False,False,True,False,False
d7205502-df3c-466f-b3b9-3abba4a61b60,H225,,04030261150000,35.1296615600586,-119.5,35.1296615600586,-119.5,,KERN,California,CHEVRON U.S.A. INC.,,Active,,Midway-Sunset,,VERTICAL,,32S,23E,21,,0,,,0,0,1485,6/3/2018 6:06:29 PM,1/1/2018 12:00:00 AM,2/1/2018 12:00:00 AM,,,,,,0,0,54,0,0,22,0,False,True,False,False,True,False,False
ff125599-dafc-483e-8415-0ae7b4c099d2,Nukern 410,Nukern,04030497790000,35.4336128234863,-119.005439758301,35.4336128234863,-119.005439758301,,KERN,California,Kern River Holdings Inc.,,Active,,Kern River,Kern River,VERTICAL,,29S,28E,6,,0,,,0,0,556,5/3/2018 6:35:35 PM,1/1/2018 12:00:00 AM,2/1/2018 12:00:00 AM,,10/23/2017 12:00:00 AM,,3/5/2013 12:00:00 AM,,268,591,11789,492,203,8799,525.8333,False,True,False,False,True,False,False
89ed6321-fec9-42e7-bee2-0b2c51f227ac,Calso 71N,Calso,04030610390000,35.3342933654785,-119.663398742676,35.3342933654785,-119.663398742676,,KERN,California,Aera Energy LLC,,Active,,Cymric,Tulare,DIRECTIONAL,,30S,21E,12,,0,,,0,0,995,6/4/2018 1:24:19 AM,1/1/2018 12:00:00 AM,1/1/2018 12:00:00 AM,,,,7/15/2016 12:00:00 AM,,230,932,2905,932,230,2905,970.3333,False,True,False,False,True,False,False
94e74be1-2ec5-4e7e-b638-16d44b30d965,6-20A,,04030129240000,35.4309158325195,-118.964141845703,35.4309158325195,-118.964141845703,,KERN,California,CHEVRON U.S.A. INC.,,Active,,Kern River,Kern River,VERTICAL,,29S,28E,3,,0,,,498,0,0,5/3/2018 4:06:38 PM,1/1/2018 12:00:00 AM,2/1/2018 12:00:00 AM,,,,,,0,209,534,102,0,260,102,False,True,False,False,True,False,False
1a19da2f-3a39-40ad-92f1-25f46090b51c,Moco 35 WM-283F,Moco 35,04030549490000,35.0779571533203,-119.418266296387,35.0779571533203,-119.418266296387,,KERN,California,Aera Energy LLC,,Active,,Midway-Sunset,,DIRECTIONAL,,12N,24W,35,,0,,,0,0,968,5/3/2018 6:38:35 PM,1/1/2018 12:00:00 AM,1/1/2018 12:00:00 AM,,,,8/24/2014 12:00:00 AM,,23,82,831,82,23,831,85.83334,False,True,False,False,True,False,False
a16474ec-03b6-442e-bf65-28ccfdd929ca,1829T,,04030504390000,35.3360290527344,-119.664085388184,35.3360290527344,-119.664085388184,,KERN,California,CHEVRON U.S.A. INC.,,Active,,Cymric,Tulare,DIRECTIONAL,,30S,21E,1,,0,,,0,0,972,5/3/2018 6:29:40 PM,1/1/2018 12:00:00 AM,2/1/2018 12:00:00 AM,,,,6/20/2013 12:00:00 AM,,443,1661,6099,930,226,2748,967.6667,False,True,False,False,True,False,False
d00c6cd6-c12f-4a44-9e9d-2af25893655e,Q-23,,04030530730000,35.3017539978027,-119.609893798828,35.3017539978027,-119.609893798828,,KERN,California,"LINN OPERATING, INC.",,Active,,McKittrick,Upper,DIRECTIONAL,,30S,22E,21,,0,,,0,0,989,5/3/2018 6:37:32 PM,1/1/2018 12:00:00 AM,1/1/2018 12:00:00 AM,,,,7/7/2014 12:00:00 AM,,0,700,44459,700,0,44459,700,False,True,False,False,True,False,False
e742347f-e1e3-490b-bced-44ae5d4c453c,Monte Cristo No. 1 202H,Monte Cristo No. 1,04030512840000,35.4406280517578,-119.003059387207,35.4406280517578,-119.003059387207,,KERN,California,CHEVRON U.S.A. INC.,,Active,,Kern River,Kern River,DIRECTIONAL,,29S,28E,5,,0,,,0,635,0,5/3/2018 6:36:43 PM,1/1/2018 12:00:00 AM,2/1/2018 12:00:00 AM,,,,9/27/2013 12:00:00 AM,,0,1344,5668,634,0,2657,634,False,True,False,False,True,False,False
8c4f2f95-ccf6-4278-ab82-10842051bfaa,3465,,04029721400000,35.4376678466797,-118.961891174316,35.4376678466797,-118.961891174316,,KERN,California,CHEVRON U.S.A. INC.,,Active,,Kern River,Kern River,VERTICAL,,29S,28E,3,,0,,,0,0,0,5/3/2018 5:55:17 PM,1/1/2018 12:00:00 AM,2/1/2018 12:00:00 AM,,,,,,0,350,890,171,0,433,171,False,True,False,False,True,False,False
399c42a6-e33b-48d4-a275-15869b3bb83f,Calso 12-683G,Calso,04029807460000,35.3315315246582,-119.661254882813,35.3315315246582,-119.661254882813,,KERN,California,Aera Energy LLC,,Active,,McKittrick,Upper,VERTICAL,,30S,21E,12,,0,,,0,0,991,5/3/2018 6:05:08 PM,1/1/2018 12:00:00 AM,1/1/2018 12:00:00 AM,,,,,,10,41,215,41,10,215,42.66667,False,True,False,False,True,False,False
72e841e8-718e-4ba0-aa09-77f1bc98d2ab,Bremer DP-85-16,BREMER,04030535970000,35.229076385498,-119.62459564209,35.229076385498,-119.62459564209,,KERN,California,FREEPORT-MCMORAN OIL & GAS LLC,,Active,,Midway-Sunset,,DIRECTIONAL,,31S,22E,16,,0,,,0,0,0,5/3/2018 4:31:12 PM,2/1/2018 12:00:00 AM,2/1/2018 12:00:00 AM,,,,5/2/2014 12:00:00 AM,,464,1116,8242,1116,464,8242,1193.333,False,True,False,False,True,False,False
00d72a2c-2b64-4741-a4ce-a793354e2d59,538ER2-18,,04030535030000,35.486255645752,-119.756156921387,35.486255645752,-119.756156921387,,KERN,California,Aera Energy LLC,,Active,,"Belridge, South",Diatomite,DIRECTIONAL,,28S,21E,18,,0,,,0,0,623,5/3/2018 6:31:12 PM,1/1/2018 12:00:00 AM,1/1/2018 12:00:00 AM,,,,,,353,489,6138,489,353,6138,547.8333,False,True,False,False,True,False,False
447709cb-81c8-4fd7-8aea-cd16cfae7336,Sill Two 48,Sill Two,04030531530000,35.4651947021484,-119.035568237305,35.4651947021484,-119.035568237305,,KERN,California,California Resources Production Corporation,,Active,,Kern Front,Etchegoin,DIRECTIONAL,,28S,27E,26,,0,,,0,0,760,5/3/2018 6:37:31 PM,1/1/2018 12:00:00 AM,1/1/2018 12:00:00 AM,,,,12/26/2013 12:00:00 AM,,0,144,21938,144,0,21938,144,False,True,False,False,True,False,False
ea54a44a-6e62-46d0-b129-e7d9cb25cb38,Section 34 BT-G12,Section 34,04030479920000,35.7130432128906,-119.806182861328,35.7130432128906,-119.806182861328,,KERN,California,California Resources Production Corporation,,Active,,Lost Hills,Tulare,VERTICAL,,25S,20E,34,,0,,,0,0,370,5/3/2018 6:27:16 PM,1/1/2018 12:00:00 AM,1/1/2018 12:00:00 AM,,,,8/3/2012 12:00:00 AM,,0,821,1982,821,0,1982,821,False,True,False,False,True,False,False
f6126200-f953-41a5-aa9c-e7ee1006e033,Maxwell 839,Maxwell,04030382550000,35.2054214477539,-119.595039367676,35.2054214477539,-119.595039367676,,KERN,California,Aera Energy LLC,,Active,,Midway-Sunset,,VERTICAL,,31S,22E,27,,0,,,0,0,1567,5/3/2018 6:26:41 PM,1/1/2018 12:00:00 AM,1/1/2018 12:00:00 AM,,,,2/27/2009 12:00:00 AM,,52,74,71,74,52,71,82.66666,False,True,False,False,True,False,False
42ab9303-89c9-4b14-8abe-e80b029494c0,M & M 169,M & M,04030198000000,35.2294807434082,-119.590354919434,35.2294807434082,-119.590354919434,,KERN,California,SENECA RESOURCES CORPORATION,,Active,,Midway-Sunset,,VERTICAL,,31S,22E,15,,0,,,0,0,1435,5/3/2018 6:09:06 PM,1/1/2018 12:00:00 AM,1/1/2018 12:00:00 AM,,,,,,0,17,60,17,0,60,17,False,True,False,False,True,False,False
99438828-de8b-463a-b35c-e97cff18df8e,Clampitt 512,CLAMPITT,04029534740000,35.4351005554199,-118.974250793457,35.4351005554199,-118.974250793457,,KERN,California,CHEVRON U.S.A. INC.,,Active,,Kern River,Kern River,VERTICAL,,29S,28E,4,,0,,,0,0,0,5/3/2018 5:48:27 PM,1/1/2018 12:00:00 AM,2/1/2018 12:00:00 AM,,,,,,0,914,1049,530,0,556,530,False,True,False,False,True,False,False
32dd7b7e-eab4-4fbd-a8f8-ea0840c0f269,266,,04030355050000,35.4758377075195,-119.033065795898,35.4758377075195,-119.033065795898,,KERN,California,California Resources Production Corporation,,Active,,Kern Front,Etchegoin,VERTICAL,,28S,27E,23,,0,,,0,0,842,5/3/2018 6:25:32 PM,1/1/2018 12:00:00 AM,1/1/2018 12:00:00 AM,,,,,,0,61,1797,61,0,1797,61,False,True,False,False,True,False,False
6f3246dc-cbad-4346-a578-3c0c161a79b9,744,,04031204510000,36.0000686645508,-120.031852722168,36.0000686645508,-120.031852722168,,KINGS,California,California Resources Production Corporation,,Active,,Kettleman North Dome,Kreyenhagen,VERTICAL,,22S,18E,21,,0,,,0,0,984,5/3/2018 4:39:48 PM,1/1/2018 12:00:00 AM,1/1/2018 12:00:00 AM,,6/15/2017 12:00:00 AM,,6/21/2011 12:00:00 AM,,0,546,8130,546,0,8130,546,False,True,False,False,True,False,False
295d74c2-64cc-4d59-93c9-36714d5254f1,Kraft 10-16,KRAFT,04037240170000,34.3848991394043,-118.49388885498,34.3848991394043,-118.49388885498,,LOS ANGELES,California,"LINN OPERATING, INC.",,Active,,Placerita,Kraft,DIRECTIONAL,,4N,15W,31,,0,,,0,0,0,5/3/2018 6:53:49 PM,1/1/2018 12:00:00 AM,1/1/2018 12:00:00 AM,,,,4/12/1991 12:00:00 AM,,0,1262,3048,1262,0,3048,1262,False,True,False,False,True,False,False
b41725d5-6c75-4bcb-9086-6cd8594893f5,Orradre 1269-12,Orradre,04053221820000,35.9443550109863,-120.84693145752,35.9443550109863,-120.84693145752,,MONTEREY,California,Aera Energy LLC,,Active,,San Ardo,Lombardi,DIRECTIONAL,,23S,10E,12,,0,,,0,826,0,5/3/2018 4:56:59 PM,1/1/2018 12:00:00 AM,1/1/2018 12:00:00 AM,,,,7/13/2012 12:00:00 AM,,142,979,56516,979,142,56516,1002.667,False,True,False,False,True,False,False
12fa379a-4e8f-4f31-b12d-e49d2a3a1704,Orradre 1449-11,Orradre,04053218860000,35.9419860839844,-120.852462768555,35.9419860839844,-120.852462768555,,MONTEREY,California,Aera Energy LLC,,Active,,San Ardo,Lombardi,VERTICAL,,23S,10E,11,,0,,,0,0,0,5/3/2018 7:03:22 PM,1/1/2018 12:00:00 AM,1/1/2018 12:00:00 AM,,,,,,455,3143,16403,3143,455,16403,3218.833,False,True,False,False,True,False,False
df147d42-66ae-4ca1-9a50-7c1db726160c,Hathaway USL 23-20,Hathaway USL,04030476040000,35.5713882446289,-119.089416503906,35.5713882446289,-119.089416503906,,KERN,California,Hathaway LLC,,Active,,Poso Creek,,VERTICAL,,27S,27E,20,,0,,,0,0,653,5/3/2018 6:27:15 PM,1/1/2018 12:00:00 AM,2/1/2018 12:00:00 AM,,,,6/20/2012 12:00:00 AM,,78,54,4063,37,37,1912,43.16667,False,True,False,False,True,False,False
a3253113-6c83-431b-ae7e-7c91bfbba936,1714N,,04030415980000,35.3451805114746,-119.664833068848,35.3451805114746,-119.664833068848,,KERN,California,CHEVRON U.S.A. INC.,,Active,,Cymric,Tulare-Antelope,DIRECTIONAL,,30S,21E,1,,0,,,0,0,952,5/3/2018 6:21:56 PM,1/1/2018 12:00:00 AM,2/1/2018 12:00:00 AM,,,,4/29/2011 12:00:00 AM,,524,2004,15018,1310,318,8077,1363,False,True,False,False,True,False,False
221f526c-6201-4ba6-bc96-7caa34ebcbbe,Cypress 60,Cypress,04030288660000,35.1262893676758,-119.499244689941,35.1262893676758,-119.499244689941,,KERN,California,"TRC Operating Company, Incorporated",,Active,,Midway-Sunset,,DIRECTIONAL,,32S,23E,22,,0,,,0,0,1498,5/3/2018 6:19:03 PM,1/1/2018 12:00:00 AM,1/1/2018 12:00:00 AM,,3/21/2017 12:00:00 AM,,,,0,86,167,86,0,167,86,False,True,False,False,True,False,False
45a10f02-93c2-4095-b4cf-7db3668fa105,Maxwell 344,Maxwell,04030041660000,35.2021446228027,-119.59236907959,35.2021446228027,-119.59236907959,,KERN,California,Aera Energy LLC,,Active,,Midway-Sunset,,VERTICAL,,31S,22E,27,,0,,,0,0,1578,5/3/2018 6:03:27 PM,1/1/2018 12:00:00 AM,1/1/2018 12:00:00 AM,,,,,,69,98,297,98,69,297,109.5,False,True,False,False,True,False,False
d507c8ae-fc35-4347-9d8b-7e0e849dcfb9,Hondo Peerless 208,Hondo Peerless,04030197860000,35.2269096374512,-119.59398651123,35.2269096374512,-119.59398651123,,KERN,California,SENECA RESOURCES CORPORATION,,Active,,Midway-Sunset,,DIRECTIONAL,,31S,22E,15,,0,,,0,0,1473,5/3/2018 6:09:06 PM,1/1/2018 12:00:00 AM,1/1/2018 12:00:00 AM,,,,,,0,84,1062,84,0,1062,84,False,True,False,False,True,False,False
f313e974-6a9e-46b6-b94e-7ef9e43af4ef,Monte Cristo No. 1 3084,Monte Cristo No. 1,04030482920000,35.4345054626465,-119.00267791748,35.4345054626465,-119.00267791748,,KERN,California,CHEVRON U.S.A. INC.,,Active,,Kern River,Kern River,DIRECTIONAL,,29S,28E,5,,0,,,0,0,559,5/3/2018 6:34:08 PM,1/1/2018 12:00:00 AM,2/1/2018 12:00:00 AM,,,,10/17/2012 12:00:00 AM,,0,178,1975,86,0,945,86,False,True,False,False,True,False,False
07f7e045-fb79-43d6-817d-dc54ad3ba91e,43K-33,,04029695010000,35.4517669677734,-119.716468811035,35.4517669677734,-119.716468811035,,KERN,California,Aera Energy LLC,,Active,,"Belridge, South",Tulare,VERTICAL,,28S,21E,33,,0,,,0,0,625,5/3/2018 5:54:20 PM,1/1/2018 12:00:00 AM,1/1/2018 12:00:00 AM,,,,,,118,476,396,476,118,396,495.6667,False,True,False,False,True,False,False
aefc2873-b2ec-4a3f-a16d-de4bbbfb1741,Marco Fee 128H,Marco Fee,04030382340000,35.4725952148438,-118.989616394043,35.4725952148438,-118.989616394043,,KERN,California,CHEVRON U.S.A. INC.,,Active,,Kern River,Kern River,VERTICAL,,28S,28E,20,,0,,,0,0,926,5/3/2018 4:19:57 PM,1/1/2018 12:00:00 AM,2/1/2018 12:00:00 AM,,,,2/20/2009 12:00:00 AM,,0,130,461,61,0,216,61,False,True,False,False,True,False,False
7bd6000d-8951-4a51-9153-df16d6899d7a,Sanguinetti 55,Sanguinetti,04029706680000,35.4580078125,-118.989234924316,35.4580078125,-118.989234924316,,KERN,California,CHEVRON U.S.A. INC.,,Active,,Kern River,Kern River,VERTICAL,,28S,28E,29,,0,,,0,0,0,5/3/2018 5:54:45 PM,1/1/2018 12:00:00 AM,2/1/2018 12:00:00 AM,,,,,,0,130,92,61,0,43,61,False,True,False,False,True,False,False
bb815238-850b-4079-99c7-dfca65a96def,1908X,,04030387840000,35.3499565124512,-119.662002563477,35.3499565124512,-119.662002563477,,KERN,California,CHEVRON U.S.A. INC.,,Active,,Cymric,Tulare-Antelope,VERTICAL,,30S,21E,1,,0,,,0,0,890,5/3/2018 4:20:19 PM,1/1/2018 12:00:00 AM,2/1/2018 12:00:00 AM,,,,12/17/2009 12:00:00 AM,,3225,11672,22329,4390,1064,9761,4567.333,False,True,False,False,True,False,False
36b2542b-3064-43d2-abd2-e0d10fcc0bb5,Kern River Drillers 512,Kern River Drillers,04030168170000,35.453052520752,-119.019752502441,35.453052520752,-119.019752502441,,KERN,California,CHEVRON U.S.A. INC.,,Active,,Kern River,Kern River,VERTICAL,,28S,27E,36,,0,,,0,0,777,5/3/2018 6:08:08 PM,1/1/2018 12:00:00 AM,2/1/2018 12:00:00 AM,,,,,,0,401,5020,172,0,2705,172,False,True,False,False,True,False,False
10d3c709-8eda-4cd0-a76d-e3467d2659d5,Kern A 159,KERN A,04029690070000,35.4530601501465,-118.978073120117,35.4530601501465,-118.978073120117,,KERN,California,CHEVRON U.S.A. INC.,,Active,,Kern River,Kern River,VERTICAL,,28S,28E,32,,0,,,0,0,0,5/3/2018 5:54:09 PM,1/1/2018 12:00:00 AM,2/1/2018 12:00:00 AM,,,,,,0,352,230,166,0,108,166,False,True,False,False,True,False,False
b1d8069c-c353-410e-bc15-e443848fb582,Green & Whittier 283,Green & Whittier,04030158750000,35.4487228393555,-119.004493713379,35.4487228393555,-119.004493713379,,KERN,California,CHEVRON U.S.A. INC.,,Active,,Kern River,Kern River,VERTICAL,,28S,28E,31,,0,,,0,0,719,5/3/2018 6:14:18 PM,1/1/2018 12:00:00 AM,2/1/2018 12:00:00 AM,,,,,,0,249,1038,109,0,451,109,False,True,False,False,True,False,False
a55556d5-1ac5-4c86-a240-6ff4ce5b8a24,Western Minerals NCT-2 1ERA,Western Minerals NCT-2,04030317720000,35.0342254638672,-119.363273620605,35.0342254638672,-119.363273620605,,KERN,California,Holmes Western Oil Corporation,,Active,,Midway-Sunset,,DIRECTIONAL,,11N,23W,17,,0,,,0,0,901,5/3/2018 6:22:12 PM,2/1/2018 12:00:00 AM,2/1/2018 12:00:00 AM,,,,,,0,142,231,142,0,231,142,False,True,False,False,True,False,False
2a7a6f1d-0af4-4780-baa7-706f70ac3a9a,Cherokee 147C,CHEROKEE,04030141410000,35.2267837524414,-119.584297180176,35.2267837524414,-119.584297180176,,KERN,California,SENECA RESOURCES CORPORATION,,Active,,Midway-Sunset,,VERTICAL,,31S,22E,14,,0,,,0,0,1382,5/3/2018 6:13:37 PM,1/1/2018 12:00:00 AM,1/1/2018 12:00:00 AM,,,,,,0,89,683,89,0,683,89,False,True,False,False,True,False,False
95f4f891-f4c2-43be-b672-715bb940feaf,Lilly Fee I-2,Lilly Fee,04030205490000,35.1013946533203,-119.462852478027,35.1013946533203,-119.462852478027,,KERN,California,Aera Energy LLC,,Active,,Midway-Sunset,,VERTICAL,,32S,23E,36,,0,,,0,0,1422,5/3/2018 4:09:21 PM,1/1/2018 12:00:00 AM,1/1/2018 12:00:00 AM,,,,,,8,28,124,28,8,124,29.33333,False,True,False,False,True,False,False
fa5710a2-2720-4c0d-bfa3-72a1ce96502b,35G 159,35G,04029653770000,35.1929206848145,-119.575874328613,35.1929206848145,-119.575874328613,,KERN,California,CHEVRON U.S.A. INC.,,Active,,Midway-Sunset,,VERTICAL,,31S,22E,35,,0,,,0,0,0,5/3/2018 5:59:25 PM,1/1/2018 12:00:00 AM,2/1/2018 12:00:00 AM,,,,,,0,63,118,30,0,56,30,False,True,False,False,True,False,False
c1195d74-b905-44c8-af52-74a1ce6a5f49,Belridge 3214A-11,Belridge,04030605150000,35.4216957092285,-119.687599182129,35.4216957092285,-119.687599182129,,KERN,California,Aera Energy LLC,,Active,,"Belridge, South",Tulare,VERTICAL,,29S,21E,11,,0,,,0,0,605,6/4/2018 12:24:12 AM,1/1/2018 12:00:00 AM,1/1/2018 12:00:00 AM,,,,,,55,221,5606,221,55,5606,230.1667,False,True,False,False,True,False,False
c4fb7c79-1d4c-49c7-8ef4-75d2df6600b7,Carlton Investment 448H-15,Carlton Investment,04030393450000,35.5774383544922,-119.908981323242,35.5774383544922,-119.908981323242,,KERN,California,California Resources Production Corporation,,Active,,"Antelope Hills, North",Point of Rocks,DIRECTIONAL,,27S,19E,15,,0,,,0,0,832,5/3/2018 6:27:21 PM,1/1/2018 12:00:00 AM,1/1/2018 12:00:00 AM,,,,10/31/2009 12:00:00 AM,,0,759,3694,759,0,3694,759,False,True,False,False,True,False,False
6c8a98a5-f076-4dce-b889-7f16407edd21,5-21,,04019251350000,36.2404403686523,-120.36939239502,36.2404403686523,-120.36939239502,,FRESNO,California,Aera Energy LLC,,Active,,Coalinga,Temblor,VERTICAL,,19S,15E,29,,0,,,0,0,0,5/4/2018 10:40:05 AM,1/1/2018 12:00:00 AM,1/1/2018 12:00:00 AM,,,,7/1/2010 12:00:00 AM,,37,569,6192,569,37,6192,575.1667,False,True,False,False,True,False,False
45d82801-1c90-4740-88d4-d83790a4bf77,PVF-E 3-10A,PVF-E,04019218870000,36.2152633666992,-120.388069152832,36.2152633666992,-120.388069152832,,FRESNO,California,CHEVRON U.S.A. INC.,,Active,,Coalinga,Temblor,VERTICAL,,20S,15E,6,,0,,,0,0,0,5/3/2018 5:17:05 PM,1/1/2018 12:00:00 AM,2/1/2018 12:00:00 AM,,,,2/28/1984 12:00:00 AM,,0,458,4566,226,0,2285,226,False,True,False,False,True,False,False
93e305af-a7e8-411d-a163-d8f4f27eaf66,Kern 384R,Kern,04030317280000,35.4443016052246,-118.988754272461,35.4443016052246,-118.988754272461,,KERN,California,CHEVRON U.S.A. INC.,,Active,,Kern River,Kern River,VERTICAL,,28S,28E,32,,0,,,0,0,670,5/3/2018 6:21:54 PM,1/1/2018 12:00:00 AM,2/1/2018 12:00:00 AM,,,,,,0,517,1945,238,0,1044,238,False,True,False,False,True,False,False
2bc098a3-70bd-42c8-a6e7-774b46e57bac,Section 2 CT-Z18,Section 2,04030308180000,35.687873840332,-119.78401184082,35.687873840332,-119.78401184082,,KERN,California,California Resources Production Corporation,,Active,,Lost Hills,Tulare,VERTICAL,,26S,20E,2,,0,,,0,0,394,5/3/2018 6:14:00 PM,1/1/2018 12:00:00 AM,1/1/2018 12:00:00 AM,,,,,,0,13,57,13,0,57,13,False,True,False,False,True,False,False
a500f83c-c6df-41cf-a447-793fc3ebe0cc,252B,,04030467090000,35.0312004089355,-119.359321594238,35.0312004089355,-119.359321594238,,KERN,California,SENECA RESOURCES CORPORATION,,Active,,Midway-Sunset,,VERTICAL,,11N,23W,20,,0,,,0,0,990,5/3/2018 4:26:50 PM,1/1/2018 12:00:00 AM,1/1/2018 12:00:00 AM,,,,4/10/2012 12:00:00 AM,,0,72,147,72,0,147,72,False,True,False,False,True,False,False
2d0f26a9-e494-4a0a-9565-79c08c6020f0,Morris USL 159,Morris USL,04030177640000,35.3344802856445,-119.63289642334,35.3344802856445,-119.63289642334,,KERN,California,FREEPORT-MCMORAN OIL & GAS LLC,,Active,,Cymric,Tulare,VERTICAL,,30S,22E,8,,0,,,0,0,0,5/3/2018 4:08:19 PM,2/1/2018 12:00:00 AM,2/1/2018 12:00:00 AM,,,,,,29,124,71,124,29,71,128.8333,False,True,False,False,True,False,False
d52afa68-281c-4cb1-94a4-c9d8e4fa0653,1003U,,04030497650000,35.3520660400391,-119.670753479004,35.3520660400391,-119.670753479004,,KERN,California,CHEVRON U.S.A. INC.,,Active,,Cymric,Tulare-Antelope,DIRECTIONAL,,30S,21E,1,,0,,,0,0,883,5/3/2018 6:35:36 PM,1/1/2018 12:00:00 AM,2/1/2018 12:00:00 AM,,,,2/1/2013 12:00:00 AM,,454,5147,16442,2053,230,7280,2091.333,False,True,False,False,True,False,False
b74c1ea0-d405-4d62-9a2c-cb23a06b66bb,Rambler 85R,Rambler,04030167630000,35.4750213623047,-118.995651245117,35.4750213623047,-118.995651245117,,KERN,California,CHEVRON U.S.A. INC.,,Active,,Kern River,Kern River,VERTICAL,,28S,28E,19,,0,,,0,0,969,5/3/2018 6:14:40 PM,1/1/2018 12:00:00 AM,2/1/2018 12:00:00 AM,,,,,,0,118,1569,46,0,736,46,False,True,False,False,True,False,False
26cb21be-e1cd-4550-8c0f-cdc7a5af95f8,Section 34 BT-Q17,Section 34,04030473700000,35.7074432373047,-119.80305480957,35.7074432373047,-119.80305480957,,KERN,California,California Resources Production Corporation,,Active,,Lost Hills,Tulare-Etchegoin,VERTICAL,,25S,20E,34,,0,,,0,0,378,5/3/2018 6:33:37 PM,1/1/2018 12:00:00 AM,1/1/2018 12:00:00 AM,,,,5/25/2012 12:00:00 AM,,0,499,1169,499,0,1169,499,False,True,False,False,True,False,False
e1f2c4fd-61b1-4ebc-8856-cf9a7d05231a,SEBU T 3410-12,SEBU T,04030175280000,35.4170150756836,-119.667182922363,35.4170150756836,-119.667182922363,,KERN,California,Aera Energy LLC,,Active,,"Belridge, South",Tulare,VERTICAL,,29S,21E,12,,0,,,0,0,524,5/3/2018 6:08:21 PM,1/1/2018 12:00:00 AM,1/1/2018 12:00:00 AM,,,,,,61,246,25880,246,61,25880,256.1667,False,True,False,False,True,False,False
07a1ab4d-d115-4230-b5f3-d2683404ac14,Green & Whittier 530R,Green & Whittier,04030331470000,35.4474601745605,-119.002662658691,35.4474601745605,-119.002662658691,,KERN,California,CHEVRON U.S.A. INC.,,Active,,Kern River,Kern River,VERTICAL,,28S,28E,31,,0,,,0,0,687,5/3/2018 6:16:46 PM,1/1/2018 12:00:00 AM,2/1/2018 12:00:00 AM,,,,,,0,271,2352,128,0,1104,128,False,True,False,False,True,False,False
a579a570-a377-4c06-8626-d38016b7d15b,McKittrick 45,McKittrick,04029811840000,35.3411178588867,-119.649063110352,35.3411178588867,-119.649063110352,,KERN,California,FREEPORT-MCMORAN OIL & GAS LLC,,Active,,Cymric,Tulare,VERTICAL,,30S,22E,6,,0,,,0,0,0,5/3/2018 3:58:37 PM,2/1/2018 12:00:00 AM,2/1/2018 12:00:00 AM,,,,,,0,2,250,2,0,250,2,False,True,False,False,True,False,False
d65ccdd8-a648-47d4-9542-d4264551e268,Monte Cristo No. 2 3313,Monte Cristo No. 2,04029728810000,35.4474563598633,-118.976181030273,35.4474563598633,-118.976181030273,,KERN,California,CHEVRON U.S.A. INC.,,Active,,Kern River,Kern River,VERTICAL,,28S,28E,32,,0,,,0,0,0,5/3/2018 3:55:34 PM,1/1/2018 12:00:00 AM,2/1/2018 12:00:00 AM,,,,,,0,32,185,15,0,87,15,False,True,False,False,True,False,False
97be9bca-b2b5-4e71-a833-80825f393440,Lost Hills C 2164R,Lost Hills C,04030266280000,35.6693725585938,-119.770751953125,35.6693725585938,-119.770751953125,,KERN,California,Aera Energy LLC,,Active,,Lost Hills,Tulare,VERTICAL,,26S,20E,13,,0,,,0,0,465,5/3/2018 4:11:35 PM,1/1/2018 12:00:00 AM,1/1/2018 12:00:00 AM,,,,,,0,435,3741,435,0,3741,435,False,True,False,False,True,False,False
49d946a2-0815-4ff3-8163-808fa84d5dbe,Security 367,Security,04030343290000,35.6573181152344,-119.766906738281,35.6573181152344,-119.766906738281,,KERN,California,SENECA RESOURCES CORPORATION,,Active,,Lost Hills,Tulare-Etchegoin,VERTICAL,,26S,20E,24,,0,,,0,0,471,5/3/2018 6:24:45 PM,1/1/2018 12:00:00 AM,1/1/2018 12:00:00 AM,,,,,,0,378,2160,378,0,2160,378,False,True,False,False,True,False,False
3c4e32df-6848-4f11-9b3b-8251a62df231,463,,04029760270000,35.4746017456055,-119.039878845215,35.4746017456055,-119.039878845215,,KERN,California,California Resources Production Corporation,,Active,,Kern Front,,VERTICAL,,28S,27E,23,,0,,,0,0,820,5/3/2018 3:56:48 PM,1/1/2018 12:00:00 AM,1/1/2018 12:00:00 AM,,,,,,0,312,20415,312,0,20415,312,False,True,False,False,True,False,False
60801ac7-c7e6-4dda-a1b9-84cae5ed6f8b,Hondo Peerless 503,Hondo Peerless,04030184130000,35.2299766540527,-119.594093322754,35.2299766540527,-119.594093322754,,KERN,California,SENECA RESOURCES CORPORATION,,Active,,Midway-Sunset,,VERTICAL,,31S,22E,15,,0,,,0,0,1463,5/3/2018 6:08:36 PM,1/1/2018 12:00:00 AM,1/1/2018 12:00:00 AM,,,,,,0,3,526,3,0,526,3,False,True,False,False,True,False,False
b5ccfb51-db77-49fb-a10e-85b40ce0ad82,Needham-Bloemer Shakedown St#2,Needham-Bloemer,04030621480000,35.4140434265137,-118.909118652344,35.4140434265137,-118.909118652344,,KERN,California,"Citadel Exploration, Inc.",,Active,,Kern Bluff,MIOCENE,VERTICAL,,29S,29E,7,,0,,,0,0,771,6/4/2018 12:24:32 AM,1/1/2018 12:00:00 AM,1/1/2018 12:00:00 AM,,,,,,0,109,1086,109,0,1086,109,False,True,False,False,True,False,False
45959e59-42f4-46ee-a509-85fae797e8ae,Star Fee 153,Star Fee,04030402050000,35.3363914489746,-119.65894317627,35.3363914489746,-119.65894317627,,KERN,California,FREEPORT-MCMORAN OIL & GAS LLC,,Active,,Cymric,Tulare,DIRECTIONAL,,30S,22E,7,,0,,,0,0,970,5/3/2018 6:21:17 PM,2/1/2018 12:00:00 AM,2/1/2018 12:00:00 AM,,,,,,567,1652,4692,1652,567,4692,1746.5,False,True,False,False,True,False,False
b366bf13-4cd0-48f6-a253-288e46aa81da,Strain Trust 11-2,Strain Trust,04011209690000,38.9908332824707,-121.932815551758,38.9908332824707,-121.932815551758,,COLUSA,California,California Resources Production Corporation,,Active,,,,DIRECTIONAL,,13N,1W,11,,0,,,0,24,0,6/4/2018 12:37:36 AM,1/1/2018 12:00:00 AM,1/1/2018 12:00:00 AM,,,,2/23/2016 12:00:00 AM,,971,0,40,0,971,40,161.8333,False,True,False,False,True,False,False
5f654372-c963-4cbd-99ee-c1a47275142d,25-9A,,04030112920000,35.4369773864746,-118.950721740723,35.4369773864746,-118.950721740723,,KERN,California,CHEVRON U.S.A. INC.,,Active,,Kern River,Kern River,VERTICAL,,29S,28E,3,,0,,,540,0,0,5/3/2018 6:12:40 PM,1/1/2018 12:00:00 AM,2/1/2018 12:00:00 AM,,,,,,0,293,2284,151,0,1168,151,False,True,False,False,True,False,False
0b99ee85-fca0-41bc-bc3a-883463954362,Kern County Land Co. Lease 39 200-9,Kern County Land Co. Lease 39,04029508160000,35.4264678955078,-118.971343994141,35.4264678955078,-118.971343994141,,KERN,California,CHEVRON U.S.A. INC.,,Active,,Kern River,Kern River,VERTICAL,,29S,28E,9,,0,,,0,0,0,5/3/2018 5:54:11 PM,1/1/2018 12:00:00 AM,2/1/2018 12:00:00 AM,,,,,,0,103,693,49,0,325,49,False,True,False,False,True,False,False
317dcb33-05dc-48b9-b689-8897695e37a0,Kelly 21,Kelly,04030436330000,35.1288833618164,-119.497215270996,35.1288833618164,-119.497215270996,,KERN,California,FREEPORT-MCMORAN OIL & GAS LLC,,Active,,Midway-Sunset,,DIRECTIONAL,,32S,23E,22,,0,,,0,0,1413,5/3/2018 6:24:05 PM,2/1/2018 12:00:00 AM,2/1/2018 12:00:00 AM,,,,8/15/2011 12:00:00 AM,,16,99,714,99,16,714,101.6667,False,True,False,False,True,False,False
296560a8-ccf2-47bd-8fdc-8cc54a1699bc,Missouri 27H,Missouri,04030345090000,35.4623908996582,-118.992294311523,35.4623908996582,-118.992294311523,,KERN,California,CHEVRON U.S.A. INC.,,Active,,Kern River,Kern River,VERTICAL,,28S,28E,29,,0,,,0,0,801,5/3/2018 6:18:11 PM,1/1/2018 12:00:00 AM,2/1/2018 12:00:00 AM,,,,,,0,452,437,200,0,192,200,False,True,False,False,True,False,False
4504fbc5-635f-4298-8716-8dee6c297997,Green & Whittier 98R,Green & Whittier,04030294550000,35.4483413696289,-119.008255004883,35.4483413696289,-119.008255004883,,KERN,California,CHEVRON U.S.A. INC.,,Active,,Kern River,Kern River,VERTICAL,,28S,28E,31,,0,,,0,0,703,5/3/2018 6:19:24 PM,1/1/2018 12:00:00 AM,2/1/2018 12:00:00 AM,,,,,,0,443,3258,246,0,1499,246,False,True,False,False,True,False,False
0bfcb812-8484-40ca-8809-8f8f61fdea29,Pierce 36,Pierce,04030248070000,35.4266204833984,-118.988265991211,35.4266204833984,-118.988265991211,,KERN,California,CHEVRON U.S.A. INC.,,Active,,Kern River,Kern River,VERTICAL,,29S,28E,8,,0,,,0,0,514,5/3/2018 4:10:56 PM,1/1/2018 12:00:00 AM,1/1/2018 12:00:00 AM,,,,,,0,2,121,2,0,121,2,False,True,False,False,True,False,False
65f9ea1f-b029-499f-82cc-91436d23b540,Neely P5,Neely,04030068340000,35.2276268005371,-119.617805480957,35.2276268005371,-119.617805480957,,KERN,California,Aera Energy LLC,,Active,,Midway-Sunset,,DIRECTIONAL,,31S,22E,16,,0,,,0,0,1695,5/3/2018 6:04:27 PM,1/1/2018 12:00:00 AM,1/1/2018 12:00:00 AM,,,,,,43,157,92,157,43,92,164.1667,False,True,False,False,True,False,False
f3e41769-8fe8-4ff1-93c2-930497b562c0,Santiago Creek Unit 5-ERA,Santiago Creek Unit,04030252800000,35.0286560058594,-119.337829589844,35.0286560058594,-119.337829589844,,KERN,California,Holmes Western Oil Corporation,,Active,,Midway-Sunset,,VERTICAL,,11N,23W,21,,0,,,0,0,918,5/3/2018 4:11:01 PM,2/1/2018 12:00:00 AM,2/1/2018 12:00:00 AM,,,,,,16,154,1638,154,16,1638,156.6667,False,True,False,False,True,False,False
a4c2affb-74a2-49d5-9238-93766e4c2b78,Green & Whittier A 196,Green & Whittier A,04029750110000,35.456844329834,-119.003234863281,35.456844329834,-119.003234863281,,KERN,California,CHEVRON U.S.A. INC.,,Active,,Kern River,Kern River,VERTICAL,,28S,28E,30,,0,,,0,0,0,5/3/2018 3:56:18 PM,1/1/2018 12:00:00 AM,2/1/2018 12:00:00 AM,,,,7/8/1985 12:00:00 AM,,0,866,5136,347,0,2319,347,False,True,False,False,True,False,False
6d134f3f-b1b6-4443-95b3-949f286f4cd6,Junction 120,Junction,04030287520000,35.4216461181641,-118.983734130859,35.4216461181641,-118.983734130859,,KERN,California,CHEVRON U.S.A. INC.,,Active,,Kern River,Kern River,VERTICAL,,29S,28E,9,,0,,,0,0,453,5/3/2018 4:12:24 PM,1/1/2018 12:00:00 AM,2/1/2018 12:00:00 AM,,,,,,0,166,1748,65,0,704,65,False,True,False,False,True,False,False
1f651f1a-7605-494c-9678-9fce9713e341,H.H. & F. 1R,H.H. & F.,04030347250000,35.4262504577637,-118.990692138672,35.4262504577637,-118.990692138672,,KERN,California,CHEVRON U.S.A. INC.,,Active,,Kern River,Kern River,VERTICAL,,29S,28E,8,,0,,,0,0,503,5/3/2018 6:18:25 PM,1/1/2018 12:00:00 AM,2/1/2018 12:00:00 AM,,,,,,0,311,16331,100,0,8118,100,False,True,False,False,True,False,False
34d7230e-d87d-45d2-aeda-a0dc564b5da1,McKittrick 32,McKittrick,04029770160000,35.3417053222656,-119.649116516113,35.3417053222656,-119.649116516113,,KERN,California,FREEPORT-MCMORAN OIL & GAS LLC,,Active,,Cymric,Tulare,VERTICAL,,30S,22E,6,,0,,,0,0,910,5/3/2018 5:57:11 PM,2/1/2018 12:00:00 AM,2/1/2018 12:00:00 AM,,,,,,20,103,1293,103,20,1293,106.3333,False,True,False,False,True,False,False
d66855ae-449a-421e-b076-a180dc424ee6,457,,04030282220000,35.1546783447266,-119.529472351074,35.1546783447266,-119.529472351074,,KERN,California,CHEVRON U.S.A. INC.,,Active,,Midway-Sunset,,DIRECTIONAL,,32S,23E,8,,0,,,0,0,1495,5/3/2018 6:12:15 PM,1/1/2018 12:00:00 AM,2/1/2018 12:00:00 AM,,,,,,0,905,7913,441,0,3849,441,False,True,False,False,True,False,False
e44152e1-ad67-449c-807a-a27d7008def2,USL 340M,USL,04030327530000,35.2670440673828,-119.598739624023,35.2670440673828,-119.598739624023,,KERN,California,FREEPORT-MCMORAN OIL & GAS LLC,,Active,,Midway-Sunset,,VERTICAL,,30S,22E,34,,0,,,0,0,1380,5/3/2018 6:16:33 PM,2/1/2018 12:00:00 AM,2/1/2018 12:00:00 AM,,8/3/2017 12:00:00 AM,,,,0,6,150,6,0,150,6,False,True,False,False,True,False,False
0078505c-c303-4606-a354-a2bc40a0e66d,Bremer 324-16,BREMER,04030151750000,35.2302551269531,-119.614326477051,35.2302551269531,-119.614326477051,,KERN,California,FREEPORT-MCMORAN OIL & GAS LLC,,Active,,Midway-Sunset,,DIRECTIONAL,,31S,22E,16,,0,,,0,0,1652,5/3/2018 6:07:28 PM,2/1/2018 12:00:00 AM,2/1/2018 12:00:00 AM,,,,,,39,95,369,95,39,369,101.5,False,True,False,False,True,False,False
2cc2ce60-c05c-4c55-b8d1-a42a3d84ffb3,Cherokee 138C,CHEROKEE,04030141080000,35.2265434265137,-119.587631225586,35.2265434265137,-119.587631225586,,KERN,California,SENECA RESOURCES CORPORATION,,Active,,Midway-Sunset,,VERTICAL,,31S,22E,14,,0,,,0,0,1395,5/3/2018 6:07:07 PM,1/1/2018 12:00:00 AM,1/1/2018 12:00:00 AM,,,,,,0,34,146,34,0,146,34,False,True,False,False,True,False,False
a8754204-6d73-4cec-94f9-a45d63e1fd37,33-423,,04029872450000,35.4436225891113,-118.974426269531,35.4436225891113,-118.974426269531,,KERN,California,CHEVRON U.S.A. INC.,,Active,,Kern River,Kern River,VERTICAL,,28S,28E,33,,0,,,0,0,0,5/3/2018 6:00:50 PM,1/1/2018 12:00:00 AM,2/1/2018 12:00:00 AM,,,,,,0,65,138,31,0,65,31,False,True,False,False,True,False,False
021a08f0-9a9d-4fdf-9ad0-95f03c9c98f5,258V,,04029834090000,35.1085472106934,-119.47046661377,35.1085472106934,-119.47046661377,,KERN,California,CHEVRON U.S.A. INC.,,Active,,Midway-Sunset,,VERTICAL,,32S,23E,26,,0,,,0,0,0,5/3/2018 3:59:24 PM,1/1/2018 12:00:00 AM,2/1/2018 12:00:00 AM,,,,,,1,6,122,1,0,19,1,False,True,False,False,True,False,False
fb91d7d7-9ad6-4e2d-9558-964bb8e2c459,SEBU T 3541A-1,SEBU T,04030315640000,35.4285049438477,-119.671745300293,35.4285049438477,-119.671745300293,,KERN,California,Aera Energy LLC,,Active,,"Belridge, South",Tulare,VERTICAL,,29S,21E,1,,0,,,0,0,526,5/3/2018 6:15:15 PM,1/1/2018 12:00:00 AM,1/1/2018 12:00:00 AM,,,,,,14,57,1058,57,14,1058,59.33333,False,True,False,False,True,False,False
81db2c05-e186-4808-aab7-966c0c81a3c4,M & M 176,M & M,04030289370000,35.2290382385254,-119.590293884277,35.2290382385254,-119.590293884277,,KERN,California,SENECA RESOURCES CORPORATION,,Active,,Midway-Sunset,,VERTICAL,,31S,22E,15,,0,,,0,0,1435,5/3/2018 6:12:26 PM,1/1/2018 12:00:00 AM,1/1/2018 12:00:00 AM,,,,,,0,251,2761,251,0,2761,251,False,True,False,False,True,False,False
b1cb5847-1624-4c33-9fab-99075a8a9acd,Belridge 3155A-11,Belridge,04030257830000,35.4228706359863,-119.681442260742,35.4228706359863,-119.681442260742,,KERN,California,Aera Energy LLC,,Active,,"Belridge, South",Tulare,VERTICAL,,29S,21E,11,,0,,,0,0,571,5/3/2018 6:17:54 PM,1/1/2018 12:00:00 AM,1/1/2018 12:00:00 AM,,,,,,38,154,3347,154,38,3347,160.3333,False,True,False,False,True,False,False
50db1ed4-9857-426a-9afb-c65d44e0b246,Fano 8A,Fano,04029815330000,35.48193359375,-119.029991149902,35.48193359375,-119.029991149902,,KERN,California,California Resources Production Corporation,,Active,,Kern Front,,VERTICAL,,28S,27E,23,,0,,,0,0,861,5/3/2018 6:05:20 PM,1/1/2018 12:00:00 AM,1/1/2018 12:00:00 AM,,,,,,0,408,5676,408,0,5676,408,False,True,False,False,True,False,False
a7ec266c-e349-4e22-8f23-c6b1b649f074,Globe 101H,Globe,04030422390000,35.4588317871094,-118.997680664063,35.4588317871094,-118.997680664063,,KERN,California,CHEVRON U.S.A. INC.,,Active,,Kern River,Kern River,VERTICAL,,28S,28E,30,,0,,,0,0,800,5/3/2018 6:23:10 PM,1/1/2018 12:00:00 AM,2/1/2018 12:00:00 AM,,,,1/23/2011 12:00:00 AM,,0,1390,4460,704,0,2129,704,False,True,False,False,True,False,False
1e53c083-c690-41ce-8469-a67eaac39ea8,Bald Eagle Jr. & Eaglet 35,Bald Eagle Jr. & Eaglet,04030018170000,35.4694061279297,-118.994979858398,35.4694061279297,-118.994979858398,,KERN,California,CHEVRON U.S.A. INC.,,Active,,Kern River,Kern River,VERTICAL,,28S,28E,30,,0,,,0,0,0,5/3/2018 4:02:37 PM,1/1/2018 12:00:00 AM,2/1/2018 12:00:00 AM,,,,,,0,168,230,79,0,108,79,False,True,False,False,True,False,False
9488b00d-acb4-4ca1-8615-ade09fcbfe6a,Maxwell M-95,Maxwell,04030382640000,35.2070846557617,-119.591125488281,35.2070846557617,-119.591125488281,,KERN,California,Aera Energy LLC,,Active,,Midway-Sunset,,VERTICAL,,31S,22E,27,,0,,,0,0,1516,5/3/2018 6:26:41 PM,1/1/2018 12:00:00 AM,1/1/2018 12:00:00 AM,,,,2/23/2009 12:00:00 AM,,210,466,349,466,210,349,501,False,True,False,False,True,False,False
e005c259-25e5-480d-9774-aeae21ce7063,U.S.A. 18,U.S.A.,04030439350000,35.485221862793,-118.998176574707,35.485221862793,-118.998176574707,,KERN,California,CHEVRON U.S.A. INC.,,Active,,Kern River,Kern River,DIRECTIONAL,,28S,28E,18,,0,,,0,1116,0,5/3/2018 6:30:43 PM,1/1/2018 12:00:00 AM,2/1/2018 12:00:00 AM,,,,9/20/2011 12:00:00 AM,,0,324,651,176,0,204,176,False,True,False,False,True,False,False
bbf9fc33-ccec-4190-90e2-aee079a192b5,May 44H,May,04030366680000,35.4188613891602,-118.987243652344,35.4188613891602,-118.987243652344,,KERN,California,CHEVRON U.S.A. INC.,,Active,,Kern River,Kern River,VERTICAL,,29S,28E,8,,0,,,0,0,454,5/3/2018 6:19:18 PM,1/1/2018 12:00:00 AM,2/1/2018 12:00:00 AM,,,,,,0,159,8035,44,0,3684,44,False,True,False,False,True,False,False
8db1043c-db91-477e-8522-af69d1b554b5,Belridge 21,Belridge,04029747770000,35.5326538085938,-119.772094726563,35.5326538085938,-119.772094726563,,KERN,California,Greka Oil & Gas Inc.,,Active,,"Belridge, North",Tulare,VERTICAL,,27S,20E,36,,0,,,0,0,0,5/3/2018 5:56:19 PM,1/1/2018 12:00:00 AM,2/1/2018 12:00:00 AM,,,,,,0,61,1115,28,0,580,28,False,True,False,False,True,False,False
faed0266-5737-473f-984d-afdcefe4c06d,Fee A 200,Fee A,04029803550000,35.457820892334,-119.013145446777,35.457820892334,-119.013145446777,,KERN,California,CHEVRON U.S.A. INC.,,Active,,Kern River,Kern River,VERTICAL,,28S,27E,25,,0,,,0,0,0,5/3/2018 3:58:19 PM,1/1/2018 12:00:00 AM,2/1/2018 12:00:00 AM,,,,,,0,250,692,118,0,325,118,False,True,False,False,True,False,False
cd0747cf-ad66-43a2-9775-b0dbd953d47f,30,,04030349610000,35.4853515625,-119.03751373291,35.4853515625,-119.03751373291,,KERN,California,California Resources Production Corporation,,Active,,Kern Front,Etchegoin,VERTICAL,,28S,27E,14,,0,,,0,0,861,5/3/2018 6:18:28 PM,1/1/2018 12:00:00 AM,1/1/2018 12:00:00 AM,,,,,,0,365,3617,365,0,3617,365,False,True,False,False,True,False,False
b7286997-d0fa-4f1b-97cc-b3e4e55c4306,Security 127,Security,04029597280000,35.5820121765137,-118.96614074707,35.5820121765137,-118.96614074707,,KERN,California,California Resources Production Corporation,,Active,,Mount Poso,Pyramid Hill-Vedder,VERTICAL,,27S,28E,16,,0,,,1188,0,0,5/3/2018 5:50:48 PM,1/1/2018 12:00:00 AM,1/1/2018 12:00:00 AM,,,,,,0,116,4871,116,0,4871,116,False,True,False,False,True,False,False
dc908469-e88f-4a28-b0fc-b45cd83681b8,8-2A,,04029761180000,35.2077255249023,-119.55891418457,35.2077255249023,-119.55891418457,,KERN,California,Crimson Resource Management Corp.,,Active,,Midway-Sunset,,VERTICAL,,31S,22E,25,,0,,,0,0,0,5/3/2018 6:03:21 PM,1/1/2018 12:00:00 AM,2/1/2018 12:00:00 AM,,,,,,0,382,73235,200,0,30914,200,False,True,False,False,True,False,False
63a5253e-e949-4235-a15f-b4c12e103981,Hopkins 302-10,Hopkins,04030384180000,35.4142150878906,-119.696075439453,35.4142150878906,-119.696075439453,,KERN,California,FREEPORT-MCMORAN OIL & GAS LLC,,Active,,"Belridge, South",Tulare,VERTICAL,,29S,21E,10,,0,,,0,0,637,5/3/2018 6:26:46 PM,2/1/2018 12:00:00 AM,2/1/2018 12:00:00 AM,,,,4/5/2011 12:00:00 AM,,18,109,2147,109,18,2147,112,False,True,False,False,True,False,False
3a50b637-9206-43ca-9bf9-b5e0199b497a,168,,04030335780000,35.1582107543945,-119.530899047852,35.1582107543945,-119.530899047852,,KERN,California,CHEVRON U.S.A. INC.,,Active,,Midway-Sunset,,VERTICAL,,32S,23E,8,,0,,,0,0,1449,5/3/2018 6:17:20 PM,1/1/2018 12:00:00 AM,2/1/2018 12:00:00 AM,,,,,,0,99,1313,47,0,622,47,False,True,False,False,True,False,False
7d4beb2a-2b39-434e-b720-b7ef56aa25bd,Section 2 LT-C1,Section 2,04030422670000,35.7007331848145,-119.795875549316,35.7007331848145,-119.795875549316,,KERN,California,California Resources Production Corporation,,Active,,Lost Hills,Tulare,DIRECTIONAL,,26S,20E,2,,0,,,0,0,383,5/3/2018 4:23:09 PM,1/1/2018 12:00:00 AM,1/1/2018 12:00:00 AM,,,,7/26/2011 12:00:00 AM,,0,365,884,365,0,884,365,False,True,False,False,True,False,False
77b86b69-e3aa-422e-8b16-a94fa2bdb08d,SEBU T 3420-12,SEBU T,04030201410000,35.416862487793,-119.673904418945,35.416862487793,-119.673904418945,,KERN,California,Aera Energy LLC,,Active,,"Belridge, South",Tulare,VERTICAL,,29S,21E,12,,0,,,0,0,548,5/3/2018 6:09:20 PM,1/1/2018 12:00:00 AM,1/1/2018 12:00:00 AM,,,,,,75,304,12835,304,75,12835,316.5,False,True,False,False,True,False,False
78cb6cba-1612-4211-82fe-a98e503c480c,Santiago Creek Unit D-30,Santiago Creek Unit,04030463730000,35.0320930480957,-119.337333679199,35.0320930480957,-119.337333679199,,KERN,California,Holmes Western Oil Corporation,,Active,,Midway-Sunset,,DIRECTIONAL,,11N,23W,21,,0,,,0,0,884,5/3/2018 4:25:44 PM,2/1/2018 12:00:00 AM,2/1/2018 12:00:00 AM,,,,9/2/2012 12:00:00 AM,,5,54,2451,54,5,2451,54.83333,False,True,False,False,True,False,False
5b39bff9-a49c-4345-99ec-aaa5a7d83731,Grady 21,GRADY,04030458920000,35.4690780639648,-119.030204772949,35.4690780639648,-119.030204772949,,KERN,California,California Resources Production Corporation,,Active,,Kern Front,,VERTICAL,,28S,27E,26,,0,,,0,0,840,5/3/2018 4:25:38 PM,1/1/2018 12:00:00 AM,1/1/2018 12:00:00 AM,,,,1/29/2012 12:00:00 AM,,0,100,2807,100,0,2807,100,False,True,False,False,True,False,False
ceb43361-dceb-4ed5-b9b1-ac3ad95ff8b6,McPhee 6-4H2,McPhee,04030328690000,35.3653144836426,-119.672004699707,35.3653144836426,-119.672004699707,,KERN,California,CHEVRON U.S.A. INC.,,Active,,Cymric,Tulare,DIRECTIONAL,,29S,21E,36,,0,,,0,0,712,5/3/2018 6:16:33 PM,1/1/2018 12:00:00 AM,2/1/2018 12:00:00 AM,,,,,,4,319,89931,158,4,43628,158.6667,False,True,False,False,True,False,False
21625037-c732-4898-842d-5f5fc595c8a2,Green & Whittier 277,Green & Whittier,04030158090000,35.4472503662109,-119.006469726563,35.4472503662109,-119.006469726563,,KERN,California,CHEVRON U.S.A. INC.,,Active,,Kern River,Kern River,VERTICAL,,28S,28E,31,,0,,,0,0,676,5/3/2018 6:07:43 PM,1/1/2018 12:00:00 AM,2/1/2018 12:00:00 AM,,,,,,0,227,461,107,0,216,107,False,True,False,False,True,False,False
cffd008e-eef5-4d02-938f-6118655f9e46,282,,04029821550000,35.2202606201172,-119.60765838623,35.2202606201172,-119.60765838623,,KERN,California,CHEVRON U.S.A. INC.,,Active,,Midway-Sunset,,VERTICAL,,31S,22E,21,,0,,,0,0,1580,5/3/2018 3:58:59 PM,1/1/2018 12:00:00 AM,2/1/2018 12:00:00 AM,,,,,,0,65,142,23,0,52,23,False,True,False,False,True,False,False
28ddf756-d4ab-4b72-8ef2-6317e69c7126,Reed Crude A 109,Reed Crude A,04029712030000,35.4438934326172,-118.982482910156,35.4438934326172,-118.982482910156,,KERN,California,CHEVRON U.S.A. INC.,,Active,,Kern River,Kern River,VERTICAL,,28S,28E,32,,0,,,0,0,0,5/3/2018 6:01:30 PM,1/1/2018 12:00:00 AM,2/1/2018 12:00:00 AM,,,,,,0,265,92,125,0,43,125,False,True,False,False,True,False,False
d5e867de-2d44-4b34-b612-64f89e3bca6a,Finley-Hausen-I 325,Finley-Hausen-I,04030146090000,35.2363471984863,-119.588287353516,35.2363471984863,-119.588287353516,,KERN,California,Aera Energy LLC,,Active,,Midway-Sunset,,VERTICAL,,31S,22E,14,,0,,,0,0,1387,5/3/2018 5:10:24 PM,1/1/2018 12:00:00 AM,1/1/2018 12:00:00 AM,,,,,,6,10,77,10,6,77,11,False,True,False,False,True,False,False
d8fdd594-8017-47b1-9779-65d0225fb328,Star Fee D337X,Star Fee,04030265010000,35.3387107849121,-119.655433654785,35.3387107849121,-119.655433654785,,KERN,California,FREEPORT-MCMORAN OIL & GAS LLC,,Active,,Cymric,Etchegoin,DIRECTIONAL,,30S,22E,7,,0,,,0,0,948,5/3/2018 6:11:35 PM,2/1/2018 12:00:00 AM,2/1/2018 12:00:00 AM,,,,,,130,488,1230,488,130,1230,509.6667,False,True,False,False,True,False,False
ba0700ed-9b57-4f03-800e-66911933df04,D & D A 49,D & D A,04030090650000,35.4729766845703,-119.003234863281,35.4729766845703,-119.003234863281,,KERN,California,CHEVRON U.S.A. INC.,,Active,,Kern River,Kern River,VERTICAL,,28S,28E,19,,0,,,0,0,0,5/3/2018 4:05:15 PM,1/1/2018 12:00:00 AM,2/1/2018 12:00:00 AM,,,,,,0,238,3309,169,0,1735,169,False,True,False,False,True,False,False
2d90eb1d-b5cc-42db-8d8b-676dd45b74b2,Gamble 1-128,Gamble,04030066660000,35.3491325378418,-119.656349182129,35.3491325378418,-119.656349182129,,KERN,California,FREEPORT-MCMORAN OIL & GAS LLC,,Active,,Cymric,Tulare,VERTICAL,,30S,22E,6,,0,,,0,0,815,5/3/2018 4:04:20 PM,2/1/2018 12:00:00 AM,2/1/2018 12:00:00 AM,,,,,,18,177,649,177,18,649,180,False,True,False,False,True,False,False
956e30b0-c2d0-4a4e-824b-6983c09e1047,Star 399,STAR,04030487980000,35.6555786132813,-119.76432800293,35.6555786132813,-119.76432800293,,KERN,California,SENECA RESOURCES CORPORATION,,Active,,Lost Hills,Etchegoin,VERTICAL,,26S,20E,24,,0,,,0,0,463,5/3/2018 6:27:49 PM,1/1/2018 12:00:00 AM,1/1/2018 12:00:00 AM,,,,10/31/2012 12:00:00 AM,,0,19,420,19,0,420,19,False,True,False,False,True,False,False
661553ee-e01a-451b-9dc2-6a4f226a4372,Moco 35 MBC-382A,Moco 35,04030111980000,35.0778732299805,-119.409164428711,35.0778732299805,-119.409164428711,,KERN,California,Aera Energy LLC,,Active,,Midway-Sunset,,DIRECTIONAL,,12N,24W,35,,0,,,0,0,891,5/3/2018 6:12:38 PM,1/1/2018 12:00:00 AM,1/1/2018 12:00:00 AM,,,,,,18,63,1584,63,18,1584,66,False,True,False,False,True,False,False
68d527d7-636a-4c32-ae17-6bc5b7f79f73,Chicago Crude 129,Chicago Crude,04029768010000,35.4641265869141,-119.005241394043,35.4641265869141,-119.005241394043,,KERN,California,CHEVRON U.S.A. INC.,,Active,,Kern River,Kern River,VERTICAL,,28S,28E,30,,0,,,0,0,0,5/3/2018 5:57:04 PM,1/1/2018 12:00:00 AM,2/1/2018 12:00:00 AM,,,,,,0,27,3892,10,0,1668,10,False,True,False,False,True,False,False
e7a99c8e-36ba-4b5c-8f67-451a3e12eaa5,Belridge II 3453-2,Belridge II,04030042100000,35.4302253723145,-119.679725646973,35.4302253723145,-119.679725646973,,KERN,California,Aera Energy LLC,,Active,,"Belridge, South",Tulare,VERTICAL,,29S,21E,2,,0,,,0,0,548,5/3/2018 6:10:09 PM,1/1/2018 12:00:00 AM,1/1/2018 12:00:00 AM,,,,,,40,160,3096,160,40,3096,166.6667,False,True,False,False,True,False,False
6d83cacc-950a-4d07-8a09-45f80c013142,G-7318,,04030044920000,35.2107925415039,-119.593360900879,35.2107925415039,-119.593360900879,,KERN,California,CHEVRON U.S.A. INC.,,Active,,Midway-Sunset,,VERTICAL,,31S,22E,22,,0,,,0,0,1505,5/3/2018 6:10:16 PM,1/1/2018 12:00:00 AM,2/1/2018 12:00:00 AM,,,,,,36,582,1138,266,5,518,266.8333,False,True,False,False,True,False,False
e36d2bfa-d0c7-4b9d-9f5b-47390eafd471,Parker 43,Parker,04029686500000,35.4632034301758,-118.97908782959,35.4632034301758,-118.97908782959,,KERN,California,CHEVRON U.S.A. INC.,,Active,,Kern River,Kern River,VERTICAL,,28S,28E,29,,0,,,0,0,0,5/3/2018 6:00:40 PM,1/1/2018 12:00:00 AM,2/1/2018 12:00:00 AM,,,,,,0,9,35,3,0,11,3,False,True,False,False,True,False,False
c65a6751-7dd9-41eb-97e3-4b368be27572,497,,04030130150000,35.1516189575195,-119.523025512695,35.1516189575195,-119.523025512695,,KERN,California,CHEVRON U.S.A. INC.,,Active,,Midway-Sunset,,VERTICAL,,32S,23E,8,,0,,,0,0,1429,5/3/2018 6:06:47 PM,1/1/2018 12:00:00 AM,2/1/2018 12:00:00 AM,,,,,,0,33,49168,15,0,22327,15,False,True,False,False,True,False,False
5f523477-72ad-4176-a2cf-4bd376a2a50a,Oakland 60,Oakland,04030280650000,35.4707183837891,-119.015113830566,35.4707183837891,-119.015113830566,,KERN,California,CHEVRON U.S.A. INC.,,Active,,Kern River,Kern River,VERTICAL,,28S,27E,24,,0,,,0,0,885,5/3/2018 6:18:45 PM,1/1/2018 12:00:00 AM,2/1/2018 12:00:00 AM,,,,,,0,38,2167,18,0,1017,18,False,True,False,False,True,False,False
c79f856f-63e3-4b50-9e34-4c425bff7d86,G-7330,,04029867080000,35.2109146118164,-119.589950561523,35.2109146118164,-119.589950561523,,KERN,California,CHEVRON U.S.A. INC.,,Active,,Midway-Sunset,,VERTICAL,,31S,22E,22,,0,,,0,0,0,5/3/2018 6:00:44 PM,1/1/2018 12:00:00 AM,2/1/2018 12:00:00 AM,,,,,,16,270,21651,129,2,10275,129.3333,False,True,False,False,True,False,False
0cebe1ea-ccea-47aa-8f85-3e077be98650,Marina 3399-3,Marina,04030141280000,35.4320983886719,-119.712608337402,35.4320983886719,-119.712608337402,,KERN,California,Aera Energy LLC,,Active,,"Belridge, South",Tulare,DIRECTIONAL,,29S,21E,3,,0,,,0,0,658,5/3/2018 4:07:03 PM,1/1/2018 12:00:00 AM,1/1/2018 12:00:00 AM,,,,,,230,929,14313,929,230,14313,967.3333,False,True,False,False,True,False,False
d090a289-e0f3-4ab7-92bd-3e751734a6e8,Monarch 115,Monarch,04030035870000,35.076000213623,-119.41145324707,35.076000213623,-119.41145324707,,KERN,California,CHEVRON U.S.A. INC.,,Active,,Midway-Sunset,,VERTICAL,,11N,24W,2,,0,,,0,0,887,5/3/2018 6:03:17 PM,1/1/2018 12:00:00 AM,2/1/2018 12:00:00 AM,,,,,,62,1378,2891,636,31,1372,641.1667,False,True,False,False,True,False,False
57c3ed39-1ee7-4e57-9eb6-4dfe7ca3aa0c,15A M108,15A,04030359480000,35.2359313964844,-119.59782409668,35.2359313964844,-119.59782409668,,KERN,California,SENECA RESOURCES CORPORATION,,Active,,Midway-Sunset,,VERTICAL,,31S,22E,15,,0,,,0,0,1467,5/3/2018 6:25:39 PM,1/1/2018 12:00:00 AM,1/1/2018 12:00:00 AM,,,,,,0,381,3923,381,0,3923,381,False,True,False,False,True,False,False
dd264fe9-788f-4cbe-b024-4e9b13c4928d,2119B,,04030582880000,35.355884552002,-119.678955078125,35.355884552002,-119.678955078125,,KERN,California,CHEVRON U.S.A. INC.,,Active,,Cymric,Tulare-Antelope,DIRECTIONAL,,29S,21E,35,,0,,,0,0,0,6/4/2018 1:23:46 AM,1/1/2018 12:00:00 AM,2/1/2018 12:00:00 AM,,,,7/21/2015 12:00:00 AM,,615,6855,31434,3014,337,15432,3070.167,False,True,False,False,True,False,False
cbc00389-d4eb-46d8-b483-5de4e33e2f0d,Monte Cristo No. 1 3363,Monte Cristo No. 1,04030142070000,35.4366188049316,-118.998809814453,35.4366188049316,-118.998809814453,,KERN,California,CHEVRON U.S.A. INC.,,Active,,Kern River,Kern River,VERTICAL,,29S,28E,5,,0,,,577,0,0,5/3/2018 6:07:06 PM,1/1/2018 12:00:00 AM,2/1/2018 12:00:00 AM,,,,,,0,273,2024,133,0,990,133,False,True,False,False,True,False,False
09d22a8a-eb26-4aaa-a738-2d175053bb88,San Joaquin 1118H,San Joaquin,04030492140000,35.4298057556152,-118.996299743652,35.4298057556152,-118.996299743652,,KERN,California,CHEVRON U.S.A. INC.,,Active,,Kern River,Kern River,DIRECTIONAL,,29S,28E,5,,0,,,0,0,529,5/3/2018 4:28:58 PM,1/1/2018 12:00:00 AM,2/1/2018 12:00:00 AM,,,,4/2/2014 12:00:00 AM,,0,724,2143,307,0,993,307,False,True,False,False,True,False,False
551d4010-f0e0-45d7-8c8d-2ea08419eff3,290B,,04029821730000,35.2200698852539,-119.618217468262,35.2200698852539,-119.618217468262,,KERN,California,CHEVRON U.S.A. INC.,,Active,,Midway-Sunset,,VERTICAL,,31S,22E,21,,0,,,0,0,1703,5/3/2018 5:59:07 PM,1/1/2018 12:00:00 AM,2/1/2018 12:00:00 AM,,,,,,0,162,281,91,0,162,91,False,True,False,False,True,False,False
3591afdb-2b37-426e-a555-2fcf75945bcd,Moco 34 T-373C,Moco 34,04030178660000,35.0782585144043,-119.426322937012,35.0782585144043,-119.426322937012,,KERN,California,Aera Energy LLC,,Active,,Midway-Sunset,,DIRECTIONAL,,12N,24W,34,,0,,,0,0,1117,5/3/2018 6:15:03 PM,1/1/2018 12:00:00 AM,1/1/2018 12:00:00 AM,,,,,,211,749,1810,749,211,1810,784.1667,False,True,False,False,True,False,False
eab036e3-614b-4bea-b94f-30f441c32109,Section 34 BT-G6,Section 34,04030477010000,35.7129364013672,-119.810134887695,35.7129364013672,-119.810134887695,,KERN,California,California Resources Production Corporation,,Active,,Lost Hills,Tulare,VERTICAL,,25S,20E,34,,0,,,0,0,388,5/3/2018 6:27:12 PM,1/1/2018 12:00:00 AM,1/1/2018 12:00:00 AM,,,,7/21/2012 12:00:00 AM,,0,61,713,61,0,713,61,False,True,False,False,True,False,False
64448cd8-4dd1-43da-a6df-3148bc5ea847,Monarch 245,Monarch,04030478690000,35.0732574462891,-119.415740966797,35.0732574462891,-119.415740966797,,KERN,California,CHEVRON U.S.A. INC.,,Active,,Midway-Sunset,,DIRECTIONAL,,11N,24W,2,,0,,,0,0,952,5/3/2018 6:27:15 PM,1/1/2018 12:00:00 AM,2/1/2018 12:00:00 AM,,,,9/8/2012 12:00:00 AM,,11,243,1017,106,5,561,106.8333,False,True,False,False,True,False,False
5ead3be4-845c-488a-916e-3337deaa2707,601,,04030261120000,35.1552429199219,-119.543075561523,35.1552429199219,-119.543075561523,,KERN,California,CHEVRON U.S.A. INC.,,Active,,Midway-Sunset,,DIRECTIONAL,,32S,23E,7,,0,,,0,0,1666,5/3/2018 6:18:06 PM,1/1/2018 12:00:00 AM,2/1/2018 12:00:00 AM,,,,,,0,749,521,428,0,297,428,False,True,False,False,True,False,False
30b1fce8-afee-4cb0-a65c-35eda270b191,Apollo 79,Apollo,04030095450000,35.4404716491699,-118.975280761719,35.4404716491699,-118.975280761719,,KERN,California,CHEVRON U.S.A. INC.,,Active,,Kern River,Kern River,DIRECTIONAL,,29S,28E,4,,0,,,0,0,0,5/3/2018 6:12:03 PM,1/1/2018 12:00:00 AM,2/1/2018 12:00:00 AM,,,,,,0,94,401,46,0,195,46,False,True,False,False,True,False,False
a82c1c0d-2797-4af8-9187-54ce8663f446,SEBU T 3174-1,SEBU T,04030272810000,35.4375305175781,-119.677116394043,35.4375305175781,-119.677116394043,,KERN,California,Aera Energy LLC,,Active,,"Belridge, South",Tulare,VERTICAL,,29S,21E,1,,0,,,0,0,526,5/3/2018 6:18:29 PM,1/1/2018 12:00:00 AM,1/1/2018 12:00:00 AM,,,,,,10,42,992,42,10,992,43.66667,False,True,False,False,True,False,False
1891f3f8-2c38-45da-8397-55ac83ead279,Hondo Peerless 113,Hondo Peerless,04029648260000,35.2279739379883,-119.593872070313,35.2279739379883,-119.593872070313,,KERN,California,SENECA RESOURCES CORPORATION,,Active,,Midway-Sunset,,VERTICAL,,31S,22E,15,,0,,,0,0,0,5/3/2018 5:52:28 PM,1/1/2018 12:00:00 AM,1/1/2018 12:00:00 AM,,,,,,0,305,1156,305,0,1156,305,False,True,False,False,True,False,False
db89ca97-dec2-438c-a3ae-57d173104767,American Naphtha 377,American Naphtha,04030447080000,35.4454154968262,-119.001113891602,35.4454154968262,-119.001113891602,,KERN,California,CHEVRON U.S.A. INC.,,Active,,Kern River,Kern River,DIRECTIONAL,,28S,28E,31,,0,,,0,0,697,5/3/2018 6:31:35 PM,1/1/2018 12:00:00 AM,2/1/2018 12:00:00 AM,,,,10/26/2011 12:00:00 AM,,0,640,6462,302,0,3029,302,False,True,False,False,True,False,False
69f45bd6-7056-4156-b9de-57e70a851c97,Orient 100H,Orient,04030460810000,35.469856262207,-119.008857727051,35.469856262207,-119.008857727051,,KERN,California,CHEVRON U.S.A. INC.,,Active,,Kern River,Kern River,DIRECTIONAL,,28S,28E,30,,0,,,0,0,878,5/3/2018 6:32:16 PM,1/1/2018 12:00:00 AM,2/1/2018 12:00:00 AM,,,,3/19/2012 12:00:00 AM,,0,411,1067,169,0,424,169,False,True,False,False,True,False,False
419262a0-158d-4322-b341-5b1e48ff78f3,Canfield 547,CANFIELD,04029441120000,35.4613876342773,-118.975700378418,35.4613876342773,-118.975700378418,,KERN,California,CHEVRON U.S.A. INC.,,Active,,Kern River,Kern River,VERTICAL,,28S,28E,29,,0,,,0,0,0,5/3/2018 5:51:36 PM,1/1/2018 12:00:00 AM,2/1/2018 12:00:00 AM,,,,,,0,0,322,0,0,151,0,False,True,False,False,True,False,False
3d34e9e2-b3bc-4dd6-8caf-23cf7f22f186,Mecca 41R-19,Mecca,04030101590000,35.474853515625,-119.002433776855,35.474853515625,-119.002433776855,,KERN,California,CHEVRON U.S.A. INC.,,Active,,Kern River,Kern River,DIRECTIONAL,,28S,28E,19,,0,,,0,0,985,5/3/2018 4:05:39 PM,1/1/2018 12:00:00 AM,2/1/2018 12:00:00 AM,,,,,,0,988,1410,395,0,547,395,False,True,False,False,True,False,False
4fed3aa6-bf15-408a-bb76-24558288ffac,Alma 38,Alma,04030212510000,35.4343528747559,-118.976112365723,35.4343528747559,-118.976112365723,,KERN,California,CHEVRON U.S.A. INC.,,Active,,Kern River,Kern River,DIRECTIONAL,,29S,28E,4,,0,,,0,0,584,5/3/2018 6:09:36 PM,2/1/2018 12:00:00 AM,2/1/2018 12:00:00 AM,,,,11/12/2002 12:00:00 AM,,0,210,169,210,0,169,210,False,True,False,False,True,False,False
a6664016-d505-40f8-b500-1e076bf54a4e,Luck 191,Luck,04029808260000,35.4678993225098,-119.001777648926,35.4678993225098,-119.001777648926,,KERN,California,CHEVRON U.S.A. INC.,,Active,,Kern River,Kern River,VERTICAL,,28S,28E,30,,0,,,0,0,0,5/3/2018 3:58:32 PM,1/1/2018 12:00:00 AM,2/1/2018 12:00:00 AM,,,,,,0,119,170,61,0,87,61,False,True,False,False,True,False,False
90874f40-3c9f-49dd-9bae-1e547ddb9a03,B.B.&O. 409H,B.B.&O.,04030158100000,35.0931701660156,-119.436660766602,35.0931701660156,-119.436660766602,,KERN,California,"LINN OPERATING, INC.",,Active,,Midway-Sunset,,VERTICAL,,12N,24W,28,,0,,,0,0,1149,5/3/2018 6:07:43 PM,1/1/2018 12:00:00 AM,1/1/2018 12:00:00 AM,,,,,,0,108,868,108,0,868,108,False,True,False,False,True,False,False
54c7e192-f7b1-4d3c-a95d-017308ea43bc,Shale 671T,Shale,04030487090000,35.2300834655762,-119.575691223145,35.2300834655762,-119.575691223145,,KERN,California,Aera Energy LLC,,Active,,Midway-Sunset,,DIRECTIONAL,,31S,22E,14,,0,,,0,0,1315,5/3/2018 6:27:48 PM,1/1/2018 12:00:00 AM,1/1/2018 12:00:00 AM,,,,1/31/2013 12:00:00 AM,,180,255,718,255,180,718,285,False,True,False,False,True,False,False
f8a967bc-f3d7-440b-a220-01b919edca83,SEBU T 3624-1,SEBU T,04030315870000,35.4269027709961,-119.677467346191,35.4269027709961,-119.677467346191,,KERN,California,Aera Energy LLC,,Active,,"Belridge, South",Tulare,VERTICAL,,29S,21E,1,,0,,,0,0,553,5/3/2018 6:15:15 PM,1/1/2018 12:00:00 AM,1/1/2018 12:00:00 AM,,,,,,555,2248,10049,2248,555,10049,2340.5,False,True,False,False,True,False,False
09c1310d-3adf-46dd-a920-033ac165a905,Tumbador E-2H,Tumbador,04030081900000,35.2131309509277,-119.587944030762,35.2131309509277,-119.587944030762,,KERN,California,CHEVRON U.S.A. INC.,,Active,,Midway-Sunset,,DIRECTIONAL,,31S,22E,23,,0,,,0,0,1450,5/3/2018 6:11:36 PM,1/1/2018 12:00:00 AM,2/1/2018 12:00:00 AM,,,,,,67,1285,273,590,9,129,591.5,False,True,False,False,True,False,False
3dbfbb7a-0365-4146-8571-0377a7e7d13e,McVan 24,McVan,04030331100000,35.5779838562012,-119.043769836426,35.5779838562012,-119.043769836426,,KERN,California,"LINN OPERATING, INC.",,Active,,Poso Creek,,DIRECTIONAL,,27S,27E,14,,0,,,0,0,842,5/3/2018 6:16:46 PM,1/1/2018 12:00:00 AM,1/1/2018 12:00:00 AM,,,,,,0,32,33236,32,0,33236,32,False,True,False,False,True,False,False
11e0ec91-8c05-46f4-84c3-039bfd5282ea,USL G-96R,USL,04030221670000,35.2064208984375,-119.603012084961,35.2064208984375,-119.603012084961,,KERN,California,CHEVRON U.S.A. INC.,,Active,,Midway-Sunset,,VERTICAL,,31S,22E,27,,0,,,0,0,1667,5/3/2018 6:16:35 PM,1/1/2018 12:00:00 AM,2/1/2018 12:00:00 AM,,,,,,9,149,531,71,1,252,71.16666,False,True,False,False,True,False,False
4843628d-4160-47c1-89f5-056e1cedc878,557L1-28,,04030363290000,35.4574737548828,-119.715438842773,35.4574737548828,-119.715438842773,,KERN,California,Aera Energy LLC,,Active,,"Belridge, South",Diatomite,DIRECTIONAL,,28S,21E,28,,0,,,0,0,598,5/3/2018 4:19:11 PM,1/1/2018 12:00:00 AM,1/1/2018 12:00:00 AM,,,,,,258,346,2498,346,258,2498,389,False,True,False,False,True,False,False
755d4bca-c987-4974-bb4f-05c1d87d598b,Finley-Johnson-Fox 457D,Finley-Johnson-Fox,04029889850000,35.2311706542969,-119.586761474609,35.2311706542969,-119.586761474609,,KERN,California,Aera Energy LLC,,Active,,Midway-Sunset,,VERTICAL,,31S,22E,14,,0,,,0,0,1399,5/3/2018 6:01:37 PM,1/1/2018 12:00:00 AM,1/1/2018 12:00:00 AM,,,,,,226,389,1355,389,226,1355,426.6667,False,True,False,False,True,False,False
25c703d6-7b5f-42ef-94ee-092cf4c7fa8f,Moco 35 MBC-299B,Moco 35,04030363870000,35.0768203735352,-119.412368774414,35.0768203735352,-119.412368774414,,KERN,California,Aera Energy LLC,,Active,,Midway-Sunset,,VERTICAL,,12N,24W,35,,0,,,0,0,885,5/3/2018 6:19:12 PM,1/1/2018 12:00:00 AM,1/1/2018 12:00:00 AM,,,,,,124,441,8572,441,124,8572,461.6667,False,True,False,False,True,False,False
8f9819bb-4b93-43e5-9a92-f33fee996599,CRITES 'A' 3,,4240932772,27.9148578643799,-97.3660659790039,27.9148578643799,-97.3660659790039,,SAN PATRICIO,Texas,"EOG RESOURCES, INC.","EOG RESOURCES, INC.",ACTIVE - PRODUCING,,"MIDWAY, S.",CONSOLIDATED,VERTICAL,,,,,,13250,13250,,0,41,0,10/24/2017 3:53:37 PM,2/1/2018 12:00:00 AM,2/1/2018 12:00:00 AM,,9/12/2017 12:00:00 AM,,11/2/2009 12:00:00 AM,,23592,108,0,108,23592,0,4040,False,False,True,True,True,False,True
b985b085-7a78-412f-8b81-94539f0468ac,HOP UNIT 1H,03-281509 : HOP UNIT,4247130377,30.756893157959,-95.3818283081055,30.7730922698975,-95.3817977905273,,WALKER,Texas,FORTUNE RESOURCES LLC,SM ENERGY COMPANY,ACTIVE - PRODUCING,,,WILDCA,HORIZONTAL,,,,,,13072,13072,6340,0,372,0,3/22/2017 7:41:05 AM,2/1/2018 12:00:00 AM,2/1/2018 12:00:00 AM,,10/3/2014 12:00:00 AM,,2/4/2015 12:00:00 AM,,2455,185,0,185,2455,0,594.1667,False,False,False,False,True,False,False
b88c6782-18c9-4fa5-965f-8314705f5a0a,JOHN GARNER RANCH 4H,04-268687 : JOHN GARNER RANCH,4247941392,28.1423587799072,-99.5652008056641,28.1353969573975,-99.5460586547852,,WEBB,Texas,"BLUESTONE NATURAL RES. II, LLC","DEVON ENERGY PRODUCTION CO, L.P.",ACTIVE - PRODUCING,,,EAGLE FORD SHALE,HORIZONTAL,,,,,,8803,8803,,0,606,0,3/21/2017 11:18:54 PM,2/1/2018 12:00:00 AM,2/1/2018 12:00:00 AM,,7/14/2011 12:00:00 AM,,8/1/2011 12:00:00 AM,,0,128,0,128,0,0,128,False,False,False,False,True,False,False
ce413a62-c367-4547-a724-1ee09795cab8,OUTLAW GAP 14-23MBH,OUTLAW GAP,33053077660000,48.0537147521973,-103.12085723877,48.0537147521973,-103.12085723877,,MC KENZIE,North Dakota,BURLINGTON RESOURCES OIL & GAS COMPANY LP,BURLINGTON RESOURCES OIL & GAS COMPANY LP,Active,,SAND CREEK,Bakken,HORIZONTAL,,153N,97W,23,,,,,0,0,0,9/2/2017 8:54:11 AM,3/1/2018 12:00:00 AM,3/1/2018 12:00:00 AM,,9/8/2016 12:00:00 AM,,,,7274,0,0,0,7274,0,1212.333,False,True,False,False,True,False,False
1877986a-78b3-4d43-bf35-500d86439fe7,Freemac 24,Freemac,04029841360000,35.0585670471191,-119.381462097168,35.0585670471191,-119.381462097168,,KERN,California,SENECA RESOURCES CORPORATION,,Idle,,Midway-Sunset,,VERTICAL,,11N,23W,7,,0,,,0,0,0,5/3/2018 5:59:46 PM,1/1/2018 12:00:00 AM,1/1/2018 12:00:00 AM,,,,,,0,354,13937,354,0,13937,354,False,True,False,False,True,False,False
0db078d1-56ef-4666-8357-4c76fb71b69e,USL 14-3-1,USL,04029688420000,35.5843772888184,-119.03832244873,35.5843772888184,-119.03832244873,,KERN,California,"LINN OPERATING, INC.",,Idle,,Poso Creek,,VERTICAL,,27S,27E,14,,0,,,0,0,871,5/3/2018 6:00:43 PM,1/1/2018 12:00:00 AM,1/1/2018 12:00:00 AM,,,,,,0,331,4489,331,0,4489,331,False,True,False,False,True,False,False
fb3bdc4b-0b7d-4e91-ab5f-5e32e150942a,Huffman 2,Huffman,04019058610000,36.0731010437012,-120.149856567383,36.0731010437012,-120.149856567383,,FRESNO,California,California Resources Production Corporation,,Idle,,Kettleman North Dome,Temblor,VERTICAL,,21S,17E,29,,0,,,881,0,0,5/3/2018 5:16:19 PM,1/1/2018 12:00:00 AM,1/1/2018 12:00:00 AM,,8/2/2017 12:00:00 AM,,11/8/1930 12:00:00 AM,,0,0,1275,0,0,1275,0,False,True,False,False,True,False,False
2eed8894-41fd-424e-9f82-49762f145606,D-615 I,,04237205390000,33.7419662475586,-118.162879943848,33.7419662475586,-118.162879943848,,LOS ANGELES OFFSHORE,California,THUMS Long Beach Co.,,Idle,,Wilmington,RANGER,DIRECTIONAL,,5S,12W,17,,0,,,0,0,0,5/3/2018 7:23:34 PM,2/1/2018 12:00:00 AM,2/1/2018 12:00:00 AM,,11/14/2017 12:00:00 AM,,,,14,35,2527,35,14,2527,37.33333,False,True,False,False,True,False,False
ca611bdf-36ba-4260-9dc0-6ebaff89c1a6,Williams Holding 361-25,Williams Holding,04083220290000,34.8348007202148,-120.299331665039,34.8348007202148,-120.299331665039,,SANTA BARBARA,California,"ERG Operating Company, LLC",,Idle,,Cat Canyon,,VERTICAL,,9N,33W,25,,0,,,0,0,0,6/3/2018 6:25:29 PM,1/1/2018 12:00:00 AM,2/1/2018 12:00:00 AM,,2/9/2017 12:00:00 AM,,,,1513,2663,29899,1663,945,15333,1820.5,False,True,False,False,True,False,False
6d363b4d-92d9-4526-b379-74915f15ce3c,A-741,,04237304720000,33.759765625,-118.182556152344,33.759765625,-118.182556152344,,LOS ANGELES OFFSHORE,California,THUMS Long Beach Co.,,New,,Wilmington,Tar,VERTICAL,,5S,12W,7,,0,,,0,0,0,6/4/2018 12:43:37 AM,1/1/2018 12:00:00 AM,2/1/2018 12:00:00 AM,,,,,,630,1213,48282,497,268,22281,541.6667,False,True,False,False,True,False,False
0b2ae725-0fc4-4160-b899-cb8d7bf3625d,A-754,,04237304930000,33.7598342895508,-118.182456970215,33.7598342895508,-118.182456970215,,LOS ANGELES OFFSHORE,California,THUMS Long Beach Co.,,New,,Wilmington,RANGER,VERTICAL,,5S,12W,7,,0,,,0,0,0,6/4/2018 12:43:38 AM,1/1/2018 12:00:00 AM,2/1/2018 12:00:00 AM,,9/11/2017 12:00:00 AM,,,,289,826,100769,391,137,47629,413.8333,False,True,False,False,True,False,False
90877bc7-fbf5-4e1b-9e75-3ea03f735ace,Orradre 1531HA-1,Orradre,04053224780000,35.9533233642578,-120.84684753418,35.9533233642578,-120.84684753418,,MONTEREY,California,Aera Energy LLC,,New,,San Ardo,Aurignac,VERTICAL,,23S,10E,1,,0,,,0,0,558,6/4/2018 1:33:04 AM,1/1/2018 12:00:00 AM,1/1/2018 12:00:00 AM,,,,,,2,17,2498,17,2,2498,17.33333,False,True,False,False,True,False,False
dd4e6f09-f4fa-48a3-8925-48324af6e045,Orradre 1027HA-12,Orradre,04053224750000,35.9505157470703,-120.850280761719,35.9505157470703,-120.850280761719,,MONTEREY,California,Aera Energy LLC,,New,,San Ardo,Aurignac,VERTICAL,,23S,10E,12,,0,,,0,0,664,6/4/2018 1:33:04 AM,1/1/2018 12:00:00 AM,1/1/2018 12:00:00 AM,,,,,,42,291,7193,291,42,7193,298,False,True,False,False,True,False,False
449f3266-1508-4957-9049-0f3425c8a22e,Nukern 910 I,Nukern,04030594340000,35.4340515136719,-119.00806427002,35.4340515136719,-119.00806427002,,KERN,California,Kern River Holdings Inc.,,New,,Kern River,Kern River,VERTICAL,,29S,28E,6,,0,,,0,0,543,6/4/2018 1:23:59 AM,1/1/2018 12:00:00 AM,2/1/2018 12:00:00 AM,,4/20/2018 12:00:00 AM,,,,1033112,11631,0,10434,30011,0,15435.83,False,True,False,False,True,False,False
5defcea4-cbb0-4dbb-8096-ed156ea532b3,Alberta 353T,Alberta,04030398730000,35.2295379638672,-119.586227416992,35.2295379638672,-119.586227416992,,KERN,California,Aera Energy LLC,,New,,Midway-Sunset,,VERTICAL,,31S,22E,14,,0,,,0,0,4403,5/3/2018 4:20:52 PM,1/1/2018 12:00:00 AM,1/1/2018 12:00:00 AM,,,,3/10/2010 12:00:00 AM,,1,1,56,1,1,56,1.166667,False,True,False,False,True,False,False
808835c3-4f27-4fc9-95c1-bba01166196a,Orradre 1211H-12,Orradre,04053224550000,35.9472465515137,-120.839836120605,35.9472465515137,-120.839836120605,,MONTEREY,California,Aera Energy LLC,,New,,San Ardo,Lombardi,VERTICAL,,23S,10E,12,,0,,,0,0,0,6/4/2018 12:33:00 AM,1/1/2018 12:00:00 AM,1/1/2018 12:00:00 AM,,,,,,130,897,35007,897,130,35007,918.6667,False,True,False,False,True,False,False
0046d029-03e3-482e-b6ea-eee11e360bc5,10-41R,,04030511210000,35.3652420043945,-119.680839538574,35.3652420043945,-119.680839538574,,KERN,California,CHEVRON U.S.A. INC.,,New,,Cymric,Tulare,VERTICAL,,29S,21E,35,,0,,,0,0,762,5/3/2018 4:29:53 PM,1/1/2018 12:00:00 AM,2/1/2018 12:00:00 AM,,,,7/22/2013 12:00:00 AM,,383,346,2692,139,151,1238,164.1667,False,True,False,False,True,False,False
ea227cdd-3536-47e5-8ae6-e7d788540cdd,Orloff 912,Orloff,04030594140000,35.4330978393555,-119.008117675781,35.4330978393555,-119.008117675781,,KERN,California,Kern River Holdings Inc.,,New,,Kern River,Kern River,VERTICAL,,29S,28E,6,,0,,,0,0,543,6/4/2018 1:23:58 AM,1/1/2018 12:00:00 AM,2/1/2018 12:00:00 AM,,4/18/2018 12:00:00 AM,,,,835,251,38821,119,352,16004,177.6667,False,True,False,False,True,False,False
375b941f-6363-4702-961f-7c63beb79d27,Lightner 5,LIGHTNER,04030523530000,35.4667663574219,-119.035377502441,35.4667663574219,-119.035377502441,,KERN,California,California Resources Production Corporation,,New,,Kern Front,,DIRECTIONAL,,28S,27E,26,,0,,,0,780,0,5/3/2018 6:30:35 PM,1/1/2018 12:00:00 AM,1/1/2018 12:00:00 AM,,,,11/3/2013 12:00:00 AM,,0,1052,27990,1052,0,27990,1052,False,True,False,False,True,False,False
0f61b459-6adf-4236-a0ed-168ac8a91891,Q-25,,04030569010000,35.3012390136719,-119.608459472656,35.3012390136719,-119.608459472656,,KERN,California,"LINN OPERATING, INC.",,New,,McKittrick,Tulare,VERTICAL,,30S,22E,21,,0,,,0,0,988,6/4/2018 1:23:28 AM,1/1/2018 12:00:00 AM,1/1/2018 12:00:00 AM,,,,,,0,543,34810,543,0,34810,543,False,True,False,False,True,False,False
a97604ec-b77f-4a74-a061-5ec14bc3dbd5,89,,04030546850000,35.4636497497559,-119.026626586914,35.4636497497559,-119.026626586914,,KERN,California,California Resources Production Corporation,,New,,Kern Front,,VERTICAL,,28S,27E,25,,0,,,0,0,759,6/3/2018 6:12:49 PM,1/1/2018 12:00:00 AM,1/1/2018 12:00:00 AM,,,,,,0,371,17709,371,0,17709,371,False,True,False,False,True,False,False
1194c5c9-a4b4-4804-a266-3b9d914f5330,Jerry-Lee 315,Jerry-Lee,04030594180000,35.4311141967773,-119.005020141602,35.4311141967773,-119.005020141602,,KERN,California,Kern River Holdings Inc.,,New,,Kern River,Kern River,VERTICAL,,29S,28E,6,,0,,,0,0,521,6/4/2018 1:23:57 AM,1/1/2018 12:00:00 AM,2/1/2018 12:00:00 AM,,4/11/2018 12:00:00 AM,,,,233,599,10325,14,86,3911,28.33333,False,True,False,False,True,False,False
0d5e3032-aa96-4e70-a560-1be718ce46f9,Nukern 811 I,Nukern,04030594300000,35.4333686828613,-119.008003234863,35.4333686828613,-119.008003234863,,KERN,California,Kern River Holdings Inc.,,New,,Kern River,Kern River,VERTICAL,,29S,28E,6,,0,,,0,0,541,6/4/2018 1:23:58 AM,1/1/2018 12:00:00 AM,1/1/2018 12:00:00 AM,,4/20/2018 12:00:00 AM,,,,3301,1468,0,1468,3301,0,2018.167,False,True,False,False,True,False,False
28d7a216-db46-4287-9d69-fea99a6c126d,Jerry-Lee 313 I,Jerry-Lee,04030594150000,35.4319725036621,-119.005058288574,35.4319725036621,-119.005058288574,,KERN,California,Kern River Holdings Inc.,,New,,Kern River,Kern River,VERTICAL,,29S,28E,6,,0,,,0,0,528,6/4/2018 1:23:57 AM,1/1/2018 12:00:00 AM,1/1/2018 12:00:00 AM,,4/11/2018 12:00:00 AM,,,,1003101,1384,0,1384,1003101,0,168567.5,False,True,False,False,True,False,False
4358bc0c-4153-476f-9726-36936dd18898,Finley-Johnson-Fox 491R,Finley-Johnson-Fox,04030500710000,35.2342987060547,-119.586074829102,35.2342987060547,-119.586074829102,,KERN,California,Aera Energy LLC,,New,,Midway-Sunset,,DIRECTIONAL,,31S,22E,14,,0,,,0,0,1388,5/3/2018 6:29:32 PM,1/1/2018 12:00:00 AM,1/1/2018 12:00:00 AM,,,,8/5/2013 12:00:00 AM,,16,28,6577,28,16,6577,30.66667,False,True,False,False,True,False,False
46ab3c9f-ff71-4761-ae31-5e71e2772343,3-8C,,04030622700000,35.357723236084,-119.656867980957,35.357723236084,-119.656867980957,,KERN,California,CHEVRON U.S.A. INC.,,New,,Cymric,Tulare,VERTICAL,,29S,22E,31,,0,,,0,0,718,6/4/2018 1:24:35 AM,1/1/2018 12:00:00 AM,2/1/2018 12:00:00 AM,,,,,,185,650,68688,221,72,25504,233,False,True,False,False,True,False,False
37482be3-225d-491e-b353-6d062628cb5a,Kern Co. Land Co. 1633H,Kern Co. Land Co.,04030623150000,35.428638458252,-118.967430114746,35.428638458252,-118.967430114746,,KERN,California,CHEVRON U.S.A. INC.,,New,,Kern River,Kern River,VERTICAL,,29S,28E,3,,0,,,0,0,467,6/4/2018 1:24:30 AM,1/1/2018 12:00:00 AM,2/1/2018 12:00:00 AM,,,,,,0,20,14200,15,0,10691,15,False,True,False,False,True,False,False
a5a250f5-b362-4c56-937c-cdbfcf3388c9,McKittrick Fee 3441,McKittrick Fee,04030624390000,35.3355903625488,-119.638519287109,35.3355903625488,-119.638519287109,,KERN,California,CHEVRON U.S.A. INC.,,New,,Cymric,Tulare,VERTICAL,,30S,22E,8,,0,,,0,0,874,6/4/2018 12:24:33 AM,1/1/2018 12:00:00 AM,2/1/2018 12:00:00 AM,,2/14/2017 12:00:00 AM,,,,0,3600,2165,2647,0,1574,2647,False,True,False,False,True,False,False
7e91ff78-6573-4902-973c-c3a8c855c6bb,Nukern 911,Nukern,04030594330000,35.4336242675781,-119.008087158203,35.4336242675781,-119.008087158203,,KERN,California,Kern River Holdings Inc.,,New,,Kern River,Kern River,VERTICAL,,29S,28E,6,,0,,,0,0,543,6/4/2018 1:23:58 AM,1/1/2018 12:00:00 AM,2/1/2018 12:00:00 AM,,4/13/2018 12:00:00 AM,,,,759,550,35079,132,252,11407,174,False,True,False,False,True,False,False
70eb642e-9950-4511-bd6f-8c03254bbbbf,Sill One 102,Sill One,04030605920000,35.4606513977051,-119.044639587402,35.4606513977051,-119.044639587402,,KERN,California,California Resources Production Corporation,,New,,Kern Front,Etchegoin-Chanac,VERTICAL,,28S,27E,26,,0,,,0,0,681,6/4/2018 1:24:16 AM,1/1/2018 12:00:00 AM,1/1/2018 12:00:00 AM,,12/15/2017 12:00:00 AM,,,,0,72,40202,72,0,40202,72,False,True,False,False,True,False,False
f135178b-e9f8-4f13-8bf5-8c60243fa397,Sill One 107,Sill One,04030605970000,35.4596214294434,-119.043388366699,35.4596214294434,-119.043388366699,,KERN,California,California Resources Production Corporation,,New,,Kern Front,Etchegoin-Chanac,VERTICAL,,28S,27E,26,,0,,,0,0,681,6/4/2018 1:24:16 AM,1/1/2018 12:00:00 AM,1/1/2018 12:00:00 AM,,5/31/2017 12:00:00 AM,,,,0,179,32785,179,0,32785,179,False,True,False,False,True,False,False
e6b06e3d-d945-427c-adc0-951bd55f7cd6,Jerry-Lee 414,Jerry-Lee,04030594460000,35.4316787719727,-119.005485534668,35.4316787719727,-119.005485534668,,KERN,California,Kern River Holdings Inc.,,New,,Kern River,Kern River,VERTICAL,,29S,28E,6,,0,,,0,0,523,6/4/2018 1:23:58 AM,1/1/2018 12:00:00 AM,2/1/2018 12:00:00 AM,,4/13/2018 12:00:00 AM,,,,366,887,16310,262,106,4607,279.6667,False,True,False,False,True,False,False
cd39967f-3dd0-43fe-b8a2-a91b6960e787,Moco 34 MBC-319,Moco 34,04030404350000,35.0832557678223,-119.42015838623,35.0832557678223,-119.42015838623,,KERN,California,Aera Energy LLC,,New,,Midway-Sunset,,VERTICAL,,12N,24W,34,,0,,,0,0,970,5/3/2018 4:21:18 PM,1/1/2018 12:00:00 AM,1/1/2018 12:00:00 AM,,,,5/27/2010 12:00:00 AM,,41,144,1345,144,41,1345,150.8333,False,True,False,False,True,False,False
cab19b07-8a6b-4464-abcf-c90f95c90b0a,Jerry-Lee 516,Jerry-Lee,04030594430000,35.4307632446289,-119.006103515625,35.4307632446289,-119.006103515625,,KERN,California,Kern River Holdings Inc.,,New,,Kern River,Kern River,VERTICAL,,29S,28E,6,,0,,,0,0,520,6/4/2018 1:23:57 AM,1/1/2018 12:00:00 AM,2/1/2018 12:00:00 AM,,4/13/2018 12:00:00 AM,,,,365,485,16638,222,138,6114,245,False,True,False,False,True,False,False
8ba8b1fb-896b-4dc8-add6-9bd1b64f2478,917CR-20,,04030607560000,35.4729156494141,-119.742218017578,35.4729156494141,-119.742218017578,,KERN,California,Aera Energy LLC,,New,,"Belridge, South",Diatomite,VERTICAL,,28S,21E,20,,0,,,0,0,0,6/4/2018 1:24:16 AM,1/1/2018 12:00:00 AM,1/1/2018 12:00:00 AM,,6/13/2017 12:00:00 AM,,,,645,913,4708,913,645,4708,1020.5,False,True,False,False,True,False,False
96d4b2b9-86fc-4216-975a-a62038a919a1,Belridge I 3029A-2,Belridge I,04030607850000,35.4389266967773,-119.680038452148,35.4389266967773,-119.680038452148,,KERN,California,Aera Energy LLC,,New,,"Belridge, South",Tulare,VERTICAL,,29S,21E,2,,0,,,0,0,0,6/4/2018 1:24:18 AM,1/1/2018 12:00:00 AM,1/1/2018 12:00:00 AM,,,,,,256,1038,49961,1038,256,49961,1080.667,False,True,False,False,True,False,False
8fbceb24-833b-4904-9f5d-87b1c252cc17,Section 3 BE-C9,Section 3,04030596360000,35.7009658813477,-119.80834197998,35.7009658813477,-119.80834197998,,KERN,California,California Resources Production Corporation,,New,,Lost Hills,Tulare-Etchegoin,VERTICAL,,26S,20E,3,,0,,,0,0,0,6/4/2018 12:24:01 AM,1/1/2018 12:00:00 AM,1/1/2018 12:00:00 AM,,,,,,0,3,2378,3,0,2378,3,False,True,False,False,True,False,False
4eafb7da-e73d-421a-9433-bebc34be2b09,Young Fee 159,Young Fee,04030599700000,35.4848289489746,-119.044769287109,35.4848289489746,-119.044769287109,,KERN,California,California Resources Production Corporation,,New,,Kern Front,Etchegoin-Chanac,VERTICAL,,28S,27E,23,,0,,,0,0,841,6/4/2018 1:24:06 AM,1/1/2018 12:00:00 AM,1/1/2018 12:00:00 AM,,5/22/2017 12:00:00 AM,,,,0,360,27328,360,0,27328,360,False,True,False,False,True,False,False
99c6cd6d-bcac-47bd-93e2-bedecaf046b1,Jerry-Lee 412 I,Jerry-Lee,04030594170000,35.4325828552246,-119.005615234375,35.4325828552246,-119.005615234375,,KERN,California,Kern River Holdings Inc.,,New,,Kern River,Kern River,VERTICAL,,29S,28E,6,,0,,,0,0,534,6/4/2018 1:23:58 AM,1/1/2018 12:00:00 AM,1/1/2018 12:00:00 AM,,1/31/2018 12:00:00 AM,,,,3001,1371,0,1371,3001,0,1871.167,False,True,False,False,True,False,False
c94a5fa4-b5bb-4592-8682-c13ca40d76b6,Orloff 913 I,Orloff,04030594210000,35.4325637817383,-119.008117675781,35.4325637817383,-119.008117675781,,KERN,California,Kern River Holdings Inc.,,New,,Kern River,Kern River,VERTICAL,,29S,28E,6,,0,,,0,0,528,6/4/2018 1:23:58 AM,1/1/2018 12:00:00 AM,1/1/2018 12:00:00 AM,,4/20/2018 12:00:00 AM,,,,1003101,1139,0,1139,1003101,0,168322.5,False,True,False,False,True,False,False
219af854-0f97-4dfe-a173-d9b8afc6a3df,Young Fee 160,Young Fee,04030599710000,35.4844818115234,-119.043846130371,35.4844818115234,-119.043846130371,,KERN,California,California Resources Production Corporation,,New,,Kern Front,Etchegoin-Chanac,VERTICAL,,28S,27E,23,,0,,,0,0,841,6/4/2018 1:24:06 AM,1/1/2018 12:00:00 AM,1/1/2018 12:00:00 AM,,5/19/2017 12:00:00 AM,,,,0,144,9490,144,0,9490,144,False,True,False,False,True,False,False
ab2ca95d-59f2-4543-9b30-da05a3896945,Jerry-Lee 715 I,Jerry-Lee,04030594270000,35.4314193725586,-119.007278442383,35.4314193725586,-119.007278442383,,KERN,California,Kern River Holdings Inc.,,New,,Kern River,Kern River,VERTICAL,,29S,28E,6,,0,,,0,0,532,6/4/2018 1:24:01 AM,1/1/2018 12:00:00 AM,1/1/2018 12:00:00 AM,,4/12/2018 12:00:00 AM,,,,1003101,1047,0,1047,1003101,0,168230.5,False,True,False,False,True,False,False
6e0b4cb5-f0fa-41f8-ae42-76b5d3c1e1e0,SEBU T 3346-1,SEBU T,04030449480000,35.4327583312988,-119.67520904541,35.4327583312988,-119.67520904541,,KERN,California,Aera Energy LLC,,New,,"Belridge, South",Tulare,VERTICAL,,29S,21E,1,,0,,,0,0,532,5/3/2018 6:25:12 PM,1/1/2018 12:00:00 AM,1/1/2018 12:00:00 AM,,,,11/7/2011 12:00:00 AM,,370,1499,30321,1499,370,30321,1560.667,False,True,False,False,True,False,False
1c04e46c-104a-465c-af8c-e322bc2518a1,Jerry-Lee 615,Jerry-Lee,04030594240000,35.4313659667969,-119.006675720215,35.4313659667969,-119.006675720215,,KERN,California,Kern River Holdings Inc.,,New,,Kern River,Kern River,VERTICAL,,29S,28E,6,,0,,,0,0,529,6/4/2018 1:23:59 AM,1/1/2018 12:00:00 AM,2/1/2018 12:00:00 AM,,4/13/2018 12:00:00 AM,,,,247,158,11342,133,166,7496,160.6667,False,True,False,False,True,False,False
60d49d58-2233-44fc-9d35-4d5de1798c60,Young Fee 163,Young Fee,04030599730000,35.4841690063477,-119.04517364502,35.4841690063477,-119.04517364502,,KERN,California,California Resources Production Corporation,,New,,Kern Front,Etchegoin-Chanac,VERTICAL,,28S,27E,23,,0,,,0,0,841,6/4/2018 1:24:05 AM,1/1/2018 12:00:00 AM,1/1/2018 12:00:00 AM,,,,,,0,73,2079,73,0,2079,73,False,True,False,False,True,False,False
f5abf315-6ce9-475c-a662-3d68d7b309ff,Jerry-Lee 415 I,Jerry-Lee,04030594450000,35.4310836791992,-119.00562286377,35.4310836791992,-119.00562286377,,KERN,California,Kern River Holdings Inc.,,New,,Kern River,Kern River,VERTICAL,,29S,28E,6,,0,,,0,0,519,6/4/2018 1:23:57 AM,1/1/2018 12:00:00 AM,1/1/2018 12:00:00 AM,,4/12/2018 12:00:00 AM,,,,1003401,1387,0,1387,1003401,0,168620.5,False,True,False,False,True,False,False
093e3d84-003f-4a49-8055-68808cb99763,Jerry-Lee 514 I,Jerry-Lee,04030594370000,35.4316596984863,-119.006233215332,35.4316596984863,-119.006233215332,,KERN,California,Kern River Holdings Inc.,,New,,Kern River,Kern River,VERTICAL,,29S,28E,6,,0,,,0,0,524,6/4/2018 1:23:57 AM,1/1/2018 12:00:00 AM,1/1/2018 12:00:00 AM,,4/12/2018 12:00:00 AM,,,,1003601,1282,0,1282,1003601,0,168548.8,False,True,False,False,True,False,False
d8d46441-0d85-4af5-bbae-639ee050bb80,Young Fee 167,Young Fee,04030599760000,35.4835205078125,-119.044692993164,35.4835205078125,-119.044692993164,,KERN,California,California Resources Production Corporation,,New,,Kern Front,Etchegoin-Chanac,VERTICAL,,28S,27E,23,,0,,,0,0,841,6/3/2018 11:24:03 PM,1/1/2018 12:00:00 AM,1/1/2018 12:00:00 AM,,5/19/2017 12:00:00 AM,,,,0,70,1719,70,0,1719,70,False,True,False,False,True,False,False
1d0b2bdb-5904-4b19-bca5-adb2420bd58f,Sill One 106,Sill One,04030605960000,35.4596099853516,-119.044624328613,35.4596099853516,-119.044624328613,,KERN,California,California Resources Production Corporation,,New,,Kern Front,Etchegoin-Chanac,VERTICAL,,28S,27E,26,,0,,,0,0,681,6/4/2018 1:24:15 AM,1/1/2018 12:00:00 AM,1/1/2018 12:00:00 AM,,,,,,0,80,29695,80,0,29695,80,False,True,False,False,True,False,False
327d64c8-8df3-4ed8-bdaa-ba94d0179b9d,Chevron Fee 624,Chevron Fee,04030621260000,35.1552467346191,-119.538909912109,35.1552467346191,-119.538909912109,,KERN,California,CHEVRON U.S.A. INC.,,New,,Midway-Sunset,,VERTICAL,,32S,23E,7,,0,,,0,0,1602,6/4/2018 1:24:30 AM,1/1/2018 12:00:00 AM,2/1/2018 12:00:00 AM,,,,,,0,1496,1526,710,0,723,710,False,True,False,False,True,False,False
992210e6-e704-43dc-a894-50d6b15721d3,Jerry-Lee 814 I,Jerry-Lee,04030594310000,35.4320068359375,-119.007873535156,35.4320068359375,-119.007873535156,,KERN,California,Kern River Holdings Inc.,,New,,Kern River,Kern River,VERTICAL,,29S,28E,6,,0,,,0,0,536,6/4/2018 1:24:01 AM,1/1/2018 12:00:00 AM,1/1/2018 12:00:00 AM,,4/12/2018 12:00:00 AM,,,,1003101,974,0,974,1003101,0,168157.5,False,True,False,False,True,False,False
3bb94865-a4e6-4f73-8eff-516cb1b1f883,Jerry-Lee 314,Jerry-Lee,04030594190000,35.4315948486328,-119.004936218262,35.4315948486328,-119.004936218262,,KERN,California,Kern River Holdings Inc.,,New,,Kern River,Kern River,VERTICAL,,29S,28E,6,,0,,,0,0,525,6/4/2018 1:23:57 AM,1/1/2018 12:00:00 AM,2/1/2018 12:00:00 AM,,4/13/2018 12:00:00 AM,,,,438,804,19489,666,296,12900,715.3333,False,True,False,False,True,False,False
aa4336d8-91a5-4da6-b4e8-3f8d196823f7,Finley-Hausen-I 336R,Finley-Hausen-I,04030414430000,35.2360610961914,-119.587905883789,35.2360610961914,-119.587905883789,,KERN,California,Aera Energy LLC,,New,,Midway-Sunset,,VERTICAL,,31S,22E,14,,0,,,0,0,1378,5/3/2018 4:21:56 PM,1/1/2018 12:00:00 AM,1/1/2018 12:00:00 AM,,,,8/26/2010 12:00:00 AM,,509,876,18909,876,509,18909,960.8333,False,True,False,False,True,False,False
022f81d3-e2d7-40c5-b1a1-40071ffb927a,363,,04030606460000,35.4710388183594,-119.046310424805,35.4710388183594,-119.046310424805,,KERN,California,California Resources Production Corporation,,New,,Kern Front,,VERTICAL,,28S,27E,23,,0,,,0,0,751,6/4/2018 1:24:14 AM,1/1/2018 12:00:00 AM,1/1/2018 12:00:00 AM,,12/5/2017 12:00:00 AM,,,,0,309,24064,309,0,24064,309,False,True,False,False,True,False,False
27e8f5d1-c3f8-4c42-b6ca-42aaafcd9212,Jerry-Lee 515,Jerry-Lee,04030594440000,35.4312629699707,-119.006065368652,35.4312629699707,-119.006065368652,,KERN,California,Kern River Holdings Inc.,,New,,Kern River,Kern River,VERTICAL,,29S,28E,6,,0,,,0,0,521,6/4/2018 1:23:57 AM,1/1/2018 12:00:00 AM,2/1/2018 12:00:00 AM,,4/13/2018 12:00:00 AM,,,,526,741,23828,340,242,10733,380.3333,False,True,False,False,True,False,False
78c2685c-0505-4eb2-a3e0-221e4a533d41,Maxwell 849,Maxwell,04030414850000,35.2046051025391,-119.594970703125,35.2046051025391,-119.594970703125,,KERN,California,Aera Energy LLC,,New,,Midway-Sunset,,VERTICAL,,31S,22E,27,,0,,,0,0,1593,5/3/2018 6:28:34 PM,1/1/2018 12:00:00 AM,1/1/2018 12:00:00 AM,,,,9/28/2010 12:00:00 AM,,7,10,20,10,7,20,11.16667,False,True,False,False,True,False,False
d6d5e313-3b6f-4f1a-b80c-0949ed31e9ef,Finley-Hausen-II 845T,Finley-Hausen-II,04030420920000,35.2314071655273,-119.582359313965,35.2314071655273,-119.582359313965,,KERN,California,Aera Energy LLC,,New,,Midway-Sunset,,VERTICAL,,31S,22E,14,,0,,,0,0,1363,5/3/2018 6:29:47 PM,1/1/2018 12:00:00 AM,1/1/2018 12:00:00 AM,,,,1/6/2011 12:00:00 AM,,20,35,54,35,20,54,38.33333,False,True,False,False,True,False,False
53cbfc82-543e-4e07-9a16-26eea549b8fb,83D-12,,04030587410000,35.5083885192871,-119.761390686035,35.5083885192871,-119.761390686035,,KERN,California,Aera Energy LLC,,New,,"Belridge, South",Tulare,VERTICAL,,28S,20E,12,,0,,,0,0,0,6/4/2018 12:23:49 AM,1/1/2018 12:00:00 AM,1/1/2018 12:00:00 AM,,,,,,7,29,2795,29,7,2795,30.16667,False,True,False,False,True,False,False
fbb1cbb5-a338-486a-a9cd-37274c24e901,Jerry-Lee 416,Jerry-Lee,04030594200000,35.4307022094727,-119.005447387695,35.4307022094727,-119.005447387695,,KERN,California,Kern River Holdings Inc.,,New,,Kern River,Kern River,VERTICAL,,29S,28E,6,,0,,,0,0,518,6/4/2018 1:23:57 AM,1/1/2018 12:00:00 AM,2/1/2018 12:00:00 AM,,4/13/2018 12:00:00 AM,,,,313,321,14331,100,140,6328,123.3333,False,True,False,False,True,False,False
dd8c786f-95c3-4c72-8e99-5b97ab2b011d,Jerry-Lee 614,Jerry-Lee,04030594250000,35.4318389892578,-119.006622314453,35.4318389892578,-119.006622314453,,KERN,California,Kern River Holdings Inc.,,New,,Kern River,Kern River,VERTICAL,,29S,28E,6,,0,,,0,0,527,6/4/2018 1:24:00 AM,1/1/2018 12:00:00 AM,2/1/2018 12:00:00 AM,,2/9/2018 12:00:00 AM,,,,354,2396,14013,1831,243,9315,1871.5,False,True,False,False,True,False,False
01d4e5fd-7b14-4c52-8ae6-6b787b64148d,DEL MAR 1,,4250136859,33.1192398071289,-102.732574462891,33.1207466125488,-102.732330322266,,YOAKUM,Texas,"WARREN AMERICAN OIL COMPANY, LLC","WARREN AMERICAN OIL COMPANY, LLC",PRODUCING,,WILDCAT,,HORIZONTAL,,,,,,13200,13175,,3601,0,0,4/19/2018 3:05:57 PM,2/1/2018 12:00:00 AM,2/1/2018 12:00:00 AM,,9/29/2017 12:00:00 AM,,11/5/2017 12:00:00 AM,,131,329,541927,329,131,541927,350.8333,False,False,False,True,True,False,False
74a52914-9892-49ad-9c2c-1a19579d5805,BRISCOE G GU8 STATE (SA3) 662H,01-282936 : BRISCOE G GU8 STATE (SA3),4247943677,28.1182174682617,-99.9272689819336,28.0987453460693,-99.9036178588867,,WEBB,Texas,SM ENERGY COMPANY,SM ENERGY COMPANY,PRODUCING,,BRISCOE RANCH (EAGLEFORD),EAGLEFORD,HORIZONTAL,,,,,,17489,7673,9816,0,718,0,5/18/2018 2:51:30 AM,2/1/2018 12:00:00 AM,3/1/2018 12:00:00 AM,,1/20/2017 12:00:00 AM,,1/31/2017 12:00:00 AM,,235972,23293,0,16661,183454,0,47236.67,False,False,False,True,True,False,False
c8092356-33db-4b53-8634-642c10232de5,BRISCOE-MANRY EF GU A 45H,01-282951 : BRISCOE-MANRY EF GU A,4247943727,27.9737567901611,-99.5255889892578,27.9530601501465,-99.5144577026367,,WEBB,Texas,"LEWIS PETRO PROPERTIES, INC.","LEWIS PETRO PROPERTIES, INC.",PRODUCING,,HAWKVILLE (EAGLEFORD SHALE),EAGLEFORD SHALE,HORIZONTAL,,,,,,17145,11090,6055,0,825,0,5/4/2018 2:13:46 AM,2/1/2018 12:00:00 AM,2/1/2018 12:00:00 AM,,6/26/2017 12:00:00 AM,,7/10/2017 12:00:00 AM,,106635,0,0,0,106635,0,17772.5,False,False,False,True,True,False,False
a08e20af-4bd4-4ac8-bc34-959618bb6551,WAGGONER 4N1 8,09-33071 : WAGGONER 4N1,4248733144,33.9777488708496,-99.028678894043,33.9777488708496,-99.028678894043,,WILBARGER,Texas,"COVENANT OPERATING, LLC","COVENANT OPERATING, LLC",PRODUCING,,WILBARGER COUNTY REGULAR,,VERTICAL,,,,,,1734,1734,,0,1109,0,4/19/2018 3:07:05 PM,1/1/2018 12:00:00 AM,2/1/2018 12:00:00 AM,,10/13/2017 12:00:00 AM,,10/16/2017 12:00:00 AM,,0,61,2531,56,0,1456,56,False,False,False,True,True,False,False
466e6c5d-11bf-4c06-816e-c93ebef3247b,MILES 25H 8H,08-49446 : MILES 25H,4232941298,31.9336414337158,-102.030799865723,31.9636192321777,-102.039710998535,,MIDLAND,Texas,"PIONEER NATURAL RES. USA, INC.","PIONEER NATURAL RES. USA, INC.",PRODUCING,,SPRABERRY (TREND AREA),TREND AREA,HORIZONTAL,,,,,,20979,9675,11270.951171875,0,0,2766,4/27/2018 3:35:00 AM,1/1/2018 12:00:00 AM,2/1/2018 12:00:00 AM,,6/21/2017 12:00:00 AM,,5/28/2017 12:00:00 AM,,28684,42776,3338,41177,26858,0,45653.33,False,False,False,True,True,False,False
